{
  "generatedAt": "2026-07-21T08:48:01.612031+00:00",
  "source": "train_encoded.csv + valid_encoded.csv + test_encoded.csv + user_recommendations.csv",
  "historyLimit": 50,
  "requestedSampleCount": 7,
  "unavailableUserIds": [],
  "users": [
    {
      "userId": 293,
      "userIdx": 299,
      "userLabel": "User 293",
      "borough": "Queens · 周五预测",
      "color": "#e11d48",
      "weekday": "周五",
      "predictionEventId": 178148,
      "checkins": [
        {
          "eventId": 176581,
          "order": 1,
          "poiIdx": 8066,
          "poiName": "Home (private)",
          "category": "Home (private)",
          "emoji": "🏠",
          "lat": 40.69321218,
          "lon": -73.93010371,
          "weekday": "周一",
          "hour": 13,
          "timeLabel": "13:00"
        },
        {
          "eventId": 176588,
          "order": 2,
          "poiIdx": 3354,
          "poiName": "Subway",
          "category": "Subway",
          "emoji": "🚇",
          "lat": 40.67933621,
          "lon": -73.93028498,
          "weekday": "周一",
          "hour": 13,
          "timeLabel": "13:07"
        },
        {
          "eventId": 176603,
          "order": 3,
          "poiIdx": 3087,
          "poiName": "Subway",
          "category": "Subway",
          "emoji": "🚇",
          "lat": 40.7255768,
          "lon": -74.004252,
          "weekday": "周一",
          "hour": 13,
          "timeLabel": "13:37"
        },
        {
          "eventId": 176604,
          "order": 4,
          "poiIdx": 7382,
          "poiName": "Road",
          "category": "Road",
          "emoji": "📍",
          "lat": 40.72584842,
          "lon": -74.00399271,
          "weekday": "周一",
          "hour": 13,
          "timeLabel": "13:38"
        },
        {
          "eventId": 176605,
          "order": 5,
          "poiIdx": 4766,
          "poiName": "Convenience Store",
          "category": "Convenience Store",
          "emoji": "📍",
          "lat": 40.727205,
          "lon": -74.003234,
          "weekday": "周一",
          "hour": 13,
          "timeLabel": "13:40"
        },
        {
          "eventId": 176608,
          "order": 6,
          "poiIdx": 3950,
          "poiName": "Paper / Office Supplies Store",
          "category": "Paper / Office Supplies Store",
          "emoji": "💼",
          "lat": 40.72702213,
          "lon": -74.00527814,
          "weekday": "周一",
          "hour": 13,
          "timeLabel": "13:42"
        },
        {
          "eventId": 176656,
          "order": 7,
          "poiIdx": 9388,
          "poiName": "Office",
          "category": "Office",
          "emoji": "💼",
          "lat": 40.72648555,
          "lon": -74.00508877,
          "weekday": "周一",
          "hour": 15,
          "timeLabel": "15:42"
        },
        {
          "eventId": 176785,
          "order": 8,
          "poiIdx": 2922,
          "poiName": "Subway",
          "category": "Subway",
          "emoji": "🚇",
          "lat": 40.73977359,
          "lon": -74.00257587,
          "weekday": "周一",
          "hour": 19,
          "timeLabel": "19:58"
        },
        {
          "eventId": 176786,
          "order": 9,
          "poiIdx": 6594,
          "poiName": "Train Station",
          "category": "Train Station",
          "emoji": "🚇",
          "lat": 40.73977054,
          "lon": -74.00258124,
          "weekday": "周一",
          "hour": 19,
          "timeLabel": "19:58"
        },
        {
          "eventId": 176797,
          "order": 10,
          "poiIdx": 7856,
          "poiName": "Subway",
          "category": "Subway",
          "emoji": "🚇",
          "lat": 40.71380945,
          "lon": -73.95024061,
          "weekday": "周一",
          "hour": 20,
          "timeLabel": "20:13"
        },
        {
          "eventId": 176798,
          "order": 11,
          "poiIdx": 1,
          "poiName": "Deli / Bodega",
          "category": "Deli / Bodega",
          "emoji": "📍",
          "lat": 40.71524653,
          "lon": -73.94961256,
          "weekday": "周一",
          "hour": 20,
          "timeLabel": "20:14"
        },
        {
          "eventId": 176801,
          "order": 12,
          "poiIdx": 676,
          "poiName": "Bakery",
          "category": "Bakery",
          "emoji": "📍",
          "lat": 40.7150559,
          "lon": -73.94950349,
          "weekday": "周一",
          "hour": 20,
          "timeLabel": "20:15"
        },
        {
          "eventId": 176803,
          "order": 13,
          "poiIdx": 4875,
          "poiName": "Deli / Bodega",
          "category": "Deli / Bodega",
          "emoji": "📍",
          "lat": 40.71606901,
          "lon": -73.94973884,
          "weekday": "周一",
          "hour": 20,
          "timeLabel": "20:16"
        },
        {
          "eventId": 176880,
          "order": 14,
          "poiIdx": 9603,
          "poiName": "General Travel",
          "category": "General Travel",
          "emoji": "📍",
          "lat": 40.71532845,
          "lon": -73.94954368,
          "weekday": "周一",
          "hour": 23,
          "timeLabel": "23:37"
        },
        {
          "eventId": 176884,
          "order": 15,
          "poiIdx": 7027,
          "poiName": "Deli / Bodega",
          "category": "Deli / Bodega",
          "emoji": "📍",
          "lat": 40.70427318,
          "lon": -73.94809715,
          "weekday": "周一",
          "hour": 23,
          "timeLabel": "23:40"
        },
        {
          "eventId": 177106,
          "order": 16,
          "poiIdx": 7038,
          "poiName": "Home (private)",
          "category": "Home (private)",
          "emoji": "🏠",
          "lat": 40.69321218,
          "lon": -73.93010371,
          "weekday": "周二",
          "hour": 12,
          "timeLabel": "12:22"
        },
        {
          "eventId": 177107,
          "order": 17,
          "poiIdx": 6952,
          "poiName": "Home (private)",
          "category": "Home (private)",
          "emoji": "🏠",
          "lat": 40.69321218,
          "lon": -73.93010371,
          "weekday": "周二",
          "hour": 12,
          "timeLabel": "12:23"
        },
        {
          "eventId": 177108,
          "order": 18,
          "poiIdx": 8066,
          "poiName": "Home (private)",
          "category": "Home (private)",
          "emoji": "🏠",
          "lat": 40.69321218,
          "lon": -73.93010371,
          "weekday": "周二",
          "hour": 12,
          "timeLabel": "12:24"
        },
        {
          "eventId": 177112,
          "order": 19,
          "poiIdx": 9717,
          "poiName": "Convenience Store",
          "category": "Convenience Store",
          "emoji": "📍",
          "lat": 40.68904527,
          "lon": -73.93031898,
          "weekday": "周二",
          "hour": 12,
          "timeLabel": "12:36"
        },
        {
          "eventId": 177114,
          "order": 20,
          "poiIdx": 6960,
          "poiName": "General Travel",
          "category": "General Travel",
          "emoji": "📍",
          "lat": 40.688968,
          "lon": -73.92908473,
          "weekday": "周二",
          "hour": 12,
          "timeLabel": "12:37"
        },
        {
          "eventId": 177127,
          "order": 21,
          "poiIdx": 3087,
          "poiName": "Subway",
          "category": "Subway",
          "emoji": "🚇",
          "lat": 40.7255768,
          "lon": -74.004252,
          "weekday": "周二",
          "hour": 13,
          "timeLabel": "13:09"
        },
        {
          "eventId": 177128,
          "order": 22,
          "poiIdx": 7382,
          "poiName": "Road",
          "category": "Road",
          "emoji": "📍",
          "lat": 40.72584842,
          "lon": -74.00399271,
          "weekday": "周二",
          "hour": 13,
          "timeLabel": "13:09"
        },
        {
          "eventId": 177130,
          "order": 23,
          "poiIdx": 2590,
          "poiName": "Park",
          "category": "Park",
          "emoji": "🌳",
          "lat": 40.72678506,
          "lon": -74.00346747,
          "weekday": "周二",
          "hour": 13,
          "timeLabel": "13:10"
        },
        {
          "eventId": 177342,
          "order": 24,
          "poiIdx": 2922,
          "poiName": "Subway",
          "category": "Subway",
          "emoji": "🚇",
          "lat": 40.73977359,
          "lon": -74.00257587,
          "weekday": "周二",
          "hour": 20,
          "timeLabel": "20:06"
        },
        {
          "eventId": 177350,
          "order": 25,
          "poiIdx": 7856,
          "poiName": "Subway",
          "category": "Subway",
          "emoji": "🚇",
          "lat": 40.71380945,
          "lon": -73.95024061,
          "weekday": "周二",
          "hour": 20,
          "timeLabel": "20:21"
        },
        {
          "eventId": 177351,
          "order": 26,
          "poiIdx": 7092,
          "poiName": "Other Great Outdoors",
          "category": "Other Great Outdoors",
          "emoji": "📍",
          "lat": 40.71408826,
          "lon": -73.94940591,
          "weekday": "周二",
          "hour": 20,
          "timeLabel": "20:22"
        },
        {
          "eventId": 177352,
          "order": 27,
          "poiIdx": 1,
          "poiName": "Deli / Bodega",
          "category": "Deli / Bodega",
          "emoji": "📍",
          "lat": 40.71524653,
          "lon": -73.94961256,
          "weekday": "周二",
          "hour": 20,
          "timeLabel": "20:22"
        },
        {
          "eventId": 177370,
          "order": 28,
          "poiIdx": 3407,
          "poiName": "Pizza Place",
          "category": "Pizza Place",
          "emoji": "📍",
          "lat": 40.71416031,
          "lon": -73.94938295,
          "weekday": "周二",
          "hour": 21,
          "timeLabel": "21:04"
        },
        {
          "eventId": 177371,
          "order": 29,
          "poiIdx": 4875,
          "poiName": "Deli / Bodega",
          "category": "Deli / Bodega",
          "emoji": "📍",
          "lat": 40.71606901,
          "lon": -73.94973884,
          "weekday": "周二",
          "hour": 21,
          "timeLabel": "21:06"
        },
        {
          "eventId": 177372,
          "order": 30,
          "poiIdx": 7106,
          "poiName": "Smoke Shop",
          "category": "Smoke Shop",
          "emoji": "📍",
          "lat": 40.71595074,
          "lon": -73.94959534,
          "weekday": "周二",
          "hour": 21,
          "timeLabel": "21:07"
        },
        {
          "eventId": 177412,
          "order": 31,
          "poiIdx": 9603,
          "poiName": "General Travel",
          "category": "General Travel",
          "emoji": "📍",
          "lat": 40.71532845,
          "lon": -73.94954368,
          "weekday": "周二",
          "hour": 23,
          "timeLabel": "23:29"
        },
        {
          "eventId": 177420,
          "order": 32,
          "poiIdx": 9722,
          "poiName": "General Travel",
          "category": "General Travel",
          "emoji": "📍",
          "lat": 40.70427839,
          "lon": -73.94789625,
          "weekday": "周二",
          "hour": 23,
          "timeLabel": "23:48"
        },
        {
          "eventId": 177713,
          "order": 33,
          "poiIdx": 8066,
          "poiName": "Home (private)",
          "category": "Home (private)",
          "emoji": "🏠",
          "lat": 40.69321218,
          "lon": -73.93010371,
          "weekday": "周三",
          "hour": 12,
          "timeLabel": "12:45"
        },
        {
          "eventId": 177715,
          "order": 34,
          "poiIdx": 9651,
          "poiName": "Deli / Bodega",
          "category": "Deli / Bodega",
          "emoji": "📍",
          "lat": 40.68914413,
          "lon": -73.93032074,
          "weekday": "周三",
          "hour": 12,
          "timeLabel": "12:47"
        },
        {
          "eventId": 177716,
          "order": 35,
          "poiIdx": 9717,
          "poiName": "Convenience Store",
          "category": "Convenience Store",
          "emoji": "📍",
          "lat": 40.68904527,
          "lon": -73.93031898,
          "weekday": "周三",
          "hour": 12,
          "timeLabel": "12:48"
        },
        {
          "eventId": 177733,
          "order": 36,
          "poiIdx": 2590,
          "poiName": "Park",
          "category": "Park",
          "emoji": "🌳",
          "lat": 40.72678506,
          "lon": -74.00346747,
          "weekday": "周三",
          "hour": 13,
          "timeLabel": "13:32"
        },
        {
          "eventId": 177734,
          "order": 37,
          "poiIdx": 4766,
          "poiName": "Convenience Store",
          "category": "Convenience Store",
          "emoji": "📍",
          "lat": 40.727205,
          "lon": -74.003234,
          "weekday": "周三",
          "hour": 13,
          "timeLabel": "13:37"
        },
        {
          "eventId": 177745,
          "order": 38,
          "poiIdx": 9388,
          "poiName": "Office",
          "category": "Office",
          "emoji": "💼",
          "lat": 40.72648555,
          "lon": -74.00508877,
          "weekday": "周三",
          "hour": 14,
          "timeLabel": "14:14"
        },
        {
          "eventId": 177934,
          "order": 39,
          "poiIdx": 9164,
          "poiName": "General Entertainment",
          "category": "General Entertainment",
          "emoji": "📍",
          "lat": 40.72641396,
          "lon": -74.00504286,
          "weekday": "周三",
          "hour": 19,
          "timeLabel": "19:58"
        },
        {
          "eventId": 177937,
          "order": 40,
          "poiIdx": 7382,
          "poiName": "Road",
          "category": "Road",
          "emoji": "📍",
          "lat": 40.72584842,
          "lon": -74.00399271,
          "weekday": "周三",
          "hour": 20,
          "timeLabel": "20:01"
        },
        {
          "eventId": 177939,
          "order": 41,
          "poiIdx": 3087,
          "poiName": "Subway",
          "category": "Subway",
          "emoji": "🚇",
          "lat": 40.7255768,
          "lon": -74.004252,
          "weekday": "周三",
          "hour": 20,
          "timeLabel": "20:03"
        },
        {
          "eventId": 177946,
          "order": 42,
          "poiIdx": 2922,
          "poiName": "Subway",
          "category": "Subway",
          "emoji": "🚇",
          "lat": 40.73977359,
          "lon": -74.00257587,
          "weekday": "周三",
          "hour": 20,
          "timeLabel": "20:08"
        },
        {
          "eventId": 177953,
          "order": 43,
          "poiIdx": 7856,
          "poiName": "Subway",
          "category": "Subway",
          "emoji": "🚇",
          "lat": 40.71380945,
          "lon": -73.95024061,
          "weekday": "周三",
          "hour": 20,
          "timeLabel": "20:23"
        },
        {
          "eventId": 177955,
          "order": 44,
          "poiIdx": 7092,
          "poiName": "Other Great Outdoors",
          "category": "Other Great Outdoors",
          "emoji": "📍",
          "lat": 40.71408826,
          "lon": -73.94940591,
          "weekday": "周三",
          "hour": 20,
          "timeLabel": "20:23"
        },
        {
          "eventId": 177956,
          "order": 45,
          "poiIdx": 3407,
          "poiName": "Pizza Place",
          "category": "Pizza Place",
          "emoji": "📍",
          "lat": 40.71416031,
          "lon": -73.94938295,
          "weekday": "周三",
          "hour": 20,
          "timeLabel": "20:25"
        },
        {
          "eventId": 177957,
          "order": 46,
          "poiIdx": 676,
          "poiName": "Bakery",
          "category": "Bakery",
          "emoji": "📍",
          "lat": 40.7150559,
          "lon": -73.94950349,
          "weekday": "周三",
          "hour": 20,
          "timeLabel": "20:26"
        },
        {
          "eventId": 177965,
          "order": 47,
          "poiIdx": 7106,
          "poiName": "Smoke Shop",
          "category": "Smoke Shop",
          "emoji": "📍",
          "lat": 40.71595074,
          "lon": -73.94959534,
          "weekday": "周三",
          "hour": 20,
          "timeLabel": "20:35"
        },
        {
          "eventId": 178031,
          "order": 48,
          "poiIdx": 9603,
          "poiName": "General Travel",
          "category": "General Travel",
          "emoji": "📍",
          "lat": 40.71532845,
          "lon": -73.94954368,
          "weekday": "周四",
          "hour": 0,
          "timeLabel": "00:09"
        },
        {
          "eventId": 178038,
          "order": 49,
          "poiIdx": 7027,
          "poiName": "Deli / Bodega",
          "category": "Deli / Bodega",
          "emoji": "📍",
          "lat": 40.70427318,
          "lon": -73.94809715,
          "weekday": "周四",
          "hour": 0,
          "timeLabel": "00:19"
        },
        {
          "eventId": 178040,
          "order": 50,
          "poiIdx": 9722,
          "poiName": "General Travel",
          "category": "General Travel",
          "emoji": "📍",
          "lat": 40.70427839,
          "lon": -73.94789625,
          "weekday": "周四",
          "hour": 0,
          "timeLabel": "00:19"
        }
      ],
      "targetCheckin": {
        "eventId": 178148,
        "order": 51,
        "poiIdx": 3851,
        "poiName": "Smoke Shop",
        "category": "Smoke Shop",
        "emoji": "📍",
        "lat": 40.75714063,
        "lon": -73.96696996,
        "weekday": "周五",
        "hour": 21,
        "timeLabel": "21:07"
      }
    },
    {
      "userId": 149,
      "userIdx": 139,
      "userLabel": "User 149",
      "borough": "Manhattan · East Side · 周三预测",
      "color": "#2563eb",
      "weekday": "周三",
      "predictionEventId": 177785,
      "checkins": [
        {
          "eventId": 123450,
          "order": 1,
          "poiIdx": 3004,
          "poiName": "Bakery",
          "category": "Bakery",
          "emoji": "📍",
          "lat": 40.755564,
          "lon": -73.922738,
          "weekday": "周六",
          "hour": 8,
          "timeLabel": "08:35"
        },
        {
          "eventId": 123451,
          "order": 2,
          "poiIdx": 2455,
          "poiName": "Gym / Fitness Center",
          "category": "Gym / Fitness Center",
          "emoji": "🏋️",
          "lat": 40.75538459,
          "lon": -73.92262459,
          "weekday": "周六",
          "hour": 8,
          "timeLabel": "08:36"
        },
        {
          "eventId": 124103,
          "order": 3,
          "poiIdx": 3004,
          "poiName": "Bakery",
          "category": "Bakery",
          "emoji": "📍",
          "lat": 40.755564,
          "lon": -73.922738,
          "weekday": "周六",
          "hour": 21,
          "timeLabel": "21:16"
        },
        {
          "eventId": 125714,
          "order": 4,
          "poiIdx": 3004,
          "poiName": "Bakery",
          "category": "Bakery",
          "emoji": "📍",
          "lat": 40.755564,
          "lon": -73.922738,
          "weekday": "周五",
          "hour": 17,
          "timeLabel": "17:57"
        },
        {
          "eventId": 129422,
          "order": 5,
          "poiIdx": 3004,
          "poiName": "Bakery",
          "category": "Bakery",
          "emoji": "📍",
          "lat": 40.755564,
          "lon": -73.922738,
          "weekday": "周三",
          "hour": 17,
          "timeLabel": "17:01"
        },
        {
          "eventId": 131109,
          "order": 6,
          "poiIdx": 2455,
          "poiName": "Gym / Fitness Center",
          "category": "Gym / Fitness Center",
          "emoji": "🏋️",
          "lat": 40.75538459,
          "lon": -73.92262459,
          "weekday": "周五",
          "hour": 19,
          "timeLabel": "19:25"
        },
        {
          "eventId": 131110,
          "order": 7,
          "poiIdx": 3004,
          "poiName": "Bakery",
          "category": "Bakery",
          "emoji": "📍",
          "lat": 40.755564,
          "lon": -73.922738,
          "weekday": "周五",
          "hour": 19,
          "timeLabel": "19:26"
        },
        {
          "eventId": 131534,
          "order": 8,
          "poiIdx": 3004,
          "poiName": "Bakery",
          "category": "Bakery",
          "emoji": "📍",
          "lat": 40.755564,
          "lon": -73.922738,
          "weekday": "周六",
          "hour": 10,
          "timeLabel": "10:50"
        },
        {
          "eventId": 132301,
          "order": 9,
          "poiIdx": 4467,
          "poiName": "Food & Drink Shop",
          "category": "Food & Drink Shop",
          "emoji": "📍",
          "lat": 40.75208489,
          "lon": -73.91483545,
          "weekday": "周日",
          "hour": 13,
          "timeLabel": "13:12"
        },
        {
          "eventId": 133298,
          "order": 10,
          "poiIdx": 3004,
          "poiName": "Bakery",
          "category": "Bakery",
          "emoji": "📍",
          "lat": 40.755564,
          "lon": -73.922738,
          "weekday": "周三",
          "hour": 20,
          "timeLabel": "20:28"
        },
        {
          "eventId": 133299,
          "order": 11,
          "poiIdx": 2455,
          "poiName": "Gym / Fitness Center",
          "category": "Gym / Fitness Center",
          "emoji": "🏋️",
          "lat": 40.75538459,
          "lon": -73.92262459,
          "weekday": "周三",
          "hour": 20,
          "timeLabel": "20:28"
        },
        {
          "eventId": 134387,
          "order": 12,
          "poiIdx": 3004,
          "poiName": "Bakery",
          "category": "Bakery",
          "emoji": "📍",
          "lat": 40.755564,
          "lon": -73.922738,
          "weekday": "周一",
          "hour": 12,
          "timeLabel": "12:47"
        },
        {
          "eventId": 136326,
          "order": 13,
          "poiIdx": 2455,
          "poiName": "Gym / Fitness Center",
          "category": "Gym / Fitness Center",
          "emoji": "🏋️",
          "lat": 40.75538459,
          "lon": -73.92262459,
          "weekday": "周五",
          "hour": 19,
          "timeLabel": "19:21"
        },
        {
          "eventId": 137766,
          "order": 14,
          "poiIdx": 3004,
          "poiName": "Bakery",
          "category": "Bakery",
          "emoji": "📍",
          "lat": 40.755564,
          "lon": -73.922738,
          "weekday": "周一",
          "hour": 16,
          "timeLabel": "16:28"
        },
        {
          "eventId": 137929,
          "order": 15,
          "poiIdx": 2455,
          "poiName": "Gym / Fitness Center",
          "category": "Gym / Fitness Center",
          "emoji": "🏋️",
          "lat": 40.75538459,
          "lon": -73.92262459,
          "weekday": "周一",
          "hour": 20,
          "timeLabel": "20:32"
        },
        {
          "eventId": 138650,
          "order": 16,
          "poiIdx": 2455,
          "poiName": "Gym / Fitness Center",
          "category": "Gym / Fitness Center",
          "emoji": "🏋️",
          "lat": 40.75538459,
          "lon": -73.92262459,
          "weekday": "周四",
          "hour": 22,
          "timeLabel": "22:21"
        },
        {
          "eventId": 138778,
          "order": 17,
          "poiIdx": 3004,
          "poiName": "Bakery",
          "category": "Bakery",
          "emoji": "📍",
          "lat": 40.755564,
          "lon": -73.922738,
          "weekday": "周五",
          "hour": 7,
          "timeLabel": "07:00"
        },
        {
          "eventId": 138790,
          "order": 18,
          "poiIdx": 2455,
          "poiName": "Gym / Fitness Center",
          "category": "Gym / Fitness Center",
          "emoji": "🏋️",
          "lat": 40.75538459,
          "lon": -73.92262459,
          "weekday": "周五",
          "hour": 7,
          "timeLabel": "07:32"
        },
        {
          "eventId": 139756,
          "order": 19,
          "poiIdx": 2455,
          "poiName": "Gym / Fitness Center",
          "category": "Gym / Fitness Center",
          "emoji": "🏋️",
          "lat": 40.75538459,
          "lon": -73.92262459,
          "weekday": "周六",
          "hour": 19,
          "timeLabel": "19:13"
        },
        {
          "eventId": 140538,
          "order": 20,
          "poiIdx": 2455,
          "poiName": "Gym / Fitness Center",
          "category": "Gym / Fitness Center",
          "emoji": "🏋️",
          "lat": 40.75538459,
          "lon": -73.92262459,
          "weekday": "周一",
          "hour": 21,
          "timeLabel": "21:40"
        },
        {
          "eventId": 140539,
          "order": 21,
          "poiIdx": 3004,
          "poiName": "Bakery",
          "category": "Bakery",
          "emoji": "📍",
          "lat": 40.755564,
          "lon": -73.922738,
          "weekday": "周一",
          "hour": 21,
          "timeLabel": "21:40"
        },
        {
          "eventId": 141189,
          "order": 22,
          "poiIdx": 2455,
          "poiName": "Gym / Fitness Center",
          "category": "Gym / Fitness Center",
          "emoji": "🏋️",
          "lat": 40.75538459,
          "lon": -73.92262459,
          "weekday": "周二",
          "hour": 21,
          "timeLabel": "21:17"
        },
        {
          "eventId": 142648,
          "order": 23,
          "poiIdx": 3004,
          "poiName": "Bakery",
          "category": "Bakery",
          "emoji": "📍",
          "lat": 40.755564,
          "lon": -73.922738,
          "weekday": "周五",
          "hour": 19,
          "timeLabel": "19:31"
        },
        {
          "eventId": 143340,
          "order": 24,
          "poiIdx": 3004,
          "poiName": "Bakery",
          "category": "Bakery",
          "emoji": "📍",
          "lat": 40.755564,
          "lon": -73.922738,
          "weekday": "周日",
          "hour": 7,
          "timeLabel": "07:02"
        },
        {
          "eventId": 143747,
          "order": 25,
          "poiIdx": 4438,
          "poiName": "Bakery",
          "category": "Bakery",
          "emoji": "📍",
          "lat": 40.75642835,
          "lon": -73.92045619,
          "weekday": "周一",
          "hour": 6,
          "timeLabel": "06:58"
        },
        {
          "eventId": 144156,
          "order": 26,
          "poiIdx": 2455,
          "poiName": "Gym / Fitness Center",
          "category": "Gym / Fitness Center",
          "emoji": "🏋️",
          "lat": 40.75538459,
          "lon": -73.92262459,
          "weekday": "周一",
          "hour": 19,
          "timeLabel": "19:05"
        },
        {
          "eventId": 144566,
          "order": 27,
          "poiIdx": 2455,
          "poiName": "Gym / Fitness Center",
          "category": "Gym / Fitness Center",
          "emoji": "🏋️",
          "lat": 40.75538459,
          "lon": -73.92262459,
          "weekday": "周二",
          "hour": 17,
          "timeLabel": "17:42"
        },
        {
          "eventId": 144588,
          "order": 28,
          "poiIdx": 1147,
          "poiName": "Hotel",
          "category": "Hotel",
          "emoji": "📍",
          "lat": 40.75261955,
          "lon": -73.99336294,
          "weekday": "周二",
          "hour": 18,
          "timeLabel": "18:31"
        },
        {
          "eventId": 145013,
          "order": 29,
          "poiIdx": 2455,
          "poiName": "Gym / Fitness Center",
          "category": "Gym / Fitness Center",
          "emoji": "🏋️",
          "lat": 40.75538459,
          "lon": -73.92262459,
          "weekday": "周三",
          "hour": 20,
          "timeLabel": "20:31"
        },
        {
          "eventId": 145465,
          "order": 30,
          "poiIdx": 2455,
          "poiName": "Gym / Fitness Center",
          "category": "Gym / Fitness Center",
          "emoji": "🏋️",
          "lat": 40.75538459,
          "lon": -73.92262459,
          "weekday": "周五",
          "hour": 19,
          "timeLabel": "19:25"
        },
        {
          "eventId": 147285,
          "order": 31,
          "poiIdx": 2455,
          "poiName": "Gym / Fitness Center",
          "category": "Gym / Fitness Center",
          "emoji": "🏋️",
          "lat": 40.75538459,
          "lon": -73.92262459,
          "weekday": "周一",
          "hour": 20,
          "timeLabel": "20:28"
        },
        {
          "eventId": 150593,
          "order": 32,
          "poiIdx": 3004,
          "poiName": "Bakery",
          "category": "Bakery",
          "emoji": "📍",
          "lat": 40.755564,
          "lon": -73.922738,
          "weekday": "周六",
          "hour": 20,
          "timeLabel": "20:04"
        },
        {
          "eventId": 151602,
          "order": 33,
          "poiIdx": 2455,
          "poiName": "Gym / Fitness Center",
          "category": "Gym / Fitness Center",
          "emoji": "🏋️",
          "lat": 40.75538459,
          "lon": -73.92262459,
          "weekday": "周一",
          "hour": 18,
          "timeLabel": "18:33"
        },
        {
          "eventId": 152428,
          "order": 34,
          "poiIdx": 2732,
          "poiName": "South American Restaurant",
          "category": "South American Restaurant",
          "emoji": "🍽️",
          "lat": 40.7585389,
          "lon": -73.91909557,
          "weekday": "周三",
          "hour": 12,
          "timeLabel": "12:44"
        },
        {
          "eventId": 152449,
          "order": 35,
          "poiIdx": 3546,
          "poiName": "Electronics Store",
          "category": "Electronics Store",
          "emoji": "📍",
          "lat": 40.75364622,
          "lon": -73.91210859,
          "weekday": "周三",
          "hour": 13,
          "timeLabel": "13:07"
        },
        {
          "eventId": 152468,
          "order": 36,
          "poiIdx": 4166,
          "poiName": "Clothing Store",
          "category": "Clothing Store",
          "emoji": "📍",
          "lat": 40.753328,
          "lon": -73.914576,
          "weekday": "周三",
          "hour": 13,
          "timeLabel": "13:28"
        },
        {
          "eventId": 155577,
          "order": 37,
          "poiIdx": 724,
          "poiName": "Bagel Shop",
          "category": "Bagel Shop",
          "emoji": "📍",
          "lat": 40.76038354,
          "lon": -73.92203496,
          "weekday": "周二",
          "hour": 8,
          "timeLabel": "08:29"
        },
        {
          "eventId": 156558,
          "order": 38,
          "poiIdx": 2455,
          "poiName": "Gym / Fitness Center",
          "category": "Gym / Fitness Center",
          "emoji": "🏋️",
          "lat": 40.75538459,
          "lon": -73.92262459,
          "weekday": "周三",
          "hour": 20,
          "timeLabel": "20:18"
        },
        {
          "eventId": 156816,
          "order": 39,
          "poiIdx": 773,
          "poiName": "Video Game Store",
          "category": "Video Game Store",
          "emoji": "📍",
          "lat": 40.75850534,
          "lon": -73.97948742,
          "weekday": "周四",
          "hour": 19,
          "timeLabel": "19:25"
        },
        {
          "eventId": 157298,
          "order": 40,
          "poiIdx": 3004,
          "poiName": "Bakery",
          "category": "Bakery",
          "emoji": "📍",
          "lat": 40.755564,
          "lon": -73.922738,
          "weekday": "周五",
          "hour": 19,
          "timeLabel": "19:45"
        },
        {
          "eventId": 157301,
          "order": 41,
          "poiIdx": 1149,
          "poiName": "Movie Theater",
          "category": "Movie Theater",
          "emoji": "🎬",
          "lat": 40.75498734,
          "lon": -73.92364816,
          "weekday": "周五",
          "hour": 19,
          "timeLabel": "19:46"
        },
        {
          "eventId": 159729,
          "order": 42,
          "poiIdx": 6790,
          "poiName": "Comedy Club",
          "category": "Comedy Club",
          "emoji": "📍",
          "lat": 40.74044126,
          "lon": -73.9848825,
          "weekday": "周日",
          "hour": 21,
          "timeLabel": "21:41"
        },
        {
          "eventId": 164188,
          "order": 43,
          "poiIdx": 2455,
          "poiName": "Gym / Fitness Center",
          "category": "Gym / Fitness Center",
          "emoji": "🏋️",
          "lat": 40.75538459,
          "lon": -73.92262459,
          "weekday": "周三",
          "hour": 20,
          "timeLabel": "20:30"
        },
        {
          "eventId": 165637,
          "order": 44,
          "poiIdx": 5040,
          "poiName": "Deli / Bodega",
          "category": "Deli / Bodega",
          "emoji": "📍",
          "lat": 40.75632428,
          "lon": -73.92018636,
          "weekday": "周六",
          "hour": 21,
          "timeLabel": "21:00"
        },
        {
          "eventId": 166537,
          "order": 45,
          "poiIdx": 2455,
          "poiName": "Gym / Fitness Center",
          "category": "Gym / Fitness Center",
          "emoji": "🏋️",
          "lat": 40.75538459,
          "lon": -73.92262459,
          "weekday": "周一",
          "hour": 20,
          "timeLabel": "20:28"
        },
        {
          "eventId": 168482,
          "order": 46,
          "poiIdx": 2455,
          "poiName": "Gym / Fitness Center",
          "category": "Gym / Fitness Center",
          "emoji": "🏋️",
          "lat": 40.75538459,
          "lon": -73.92262459,
          "weekday": "周一",
          "hour": 18,
          "timeLabel": "18:22"
        },
        {
          "eventId": 168900,
          "order": 47,
          "poiIdx": 8746,
          "poiName": "Coffee Shop",
          "category": "Coffee Shop",
          "emoji": "☕",
          "lat": 40.77211113,
          "lon": -73.96095474,
          "weekday": "周四",
          "hour": 13,
          "timeLabel": "13:47"
        },
        {
          "eventId": 171622,
          "order": 48,
          "poiIdx": 5929,
          "poiName": "Medical Center",
          "category": "Medical Center",
          "emoji": "📍",
          "lat": 40.749178,
          "lon": -73.8756808,
          "weekday": "周三",
          "hour": 15,
          "timeLabel": "15:10"
        },
        {
          "eventId": 171775,
          "order": 49,
          "poiIdx": 2732,
          "poiName": "South American Restaurant",
          "category": "South American Restaurant",
          "emoji": "🍽️",
          "lat": 40.7585389,
          "lon": -73.91909557,
          "weekday": "周三",
          "hour": 20,
          "timeLabel": "20:55"
        },
        {
          "eventId": 172520,
          "order": 50,
          "poiIdx": 2455,
          "poiName": "Gym / Fitness Center",
          "category": "Gym / Fitness Center",
          "emoji": "🏋️",
          "lat": 40.75538459,
          "lon": -73.92262459,
          "weekday": "周五",
          "hour": 8,
          "timeLabel": "08:23"
        }
      ],
      "targetCheckin": {
        "eventId": 177785,
        "order": 51,
        "poiIdx": 5929,
        "poiName": "Medical Center",
        "category": "Medical Center",
        "emoji": "📍",
        "lat": 40.749178,
        "lon": -73.8756808,
        "weekday": "周三",
        "hour": 16,
        "timeLabel": "16:19"
      }
    },
    {
      "userId": 517,
      "userIdx": 548,
      "userLabel": "User 517",
      "borough": "Manhattan · East Side · 周一预测",
      "color": "#059669",
      "weekday": "周一",
      "predictionEventId": 176747,
      "checkins": [
        {
          "eventId": 161990,
          "order": 1,
          "poiIdx": 7045,
          "poiName": "Zoo",
          "category": "Zoo",
          "emoji": "📍",
          "lat": 40.64333096,
          "lon": -74.07385826,
          "weekday": "周六",
          "hour": 7,
          "timeLabel": "07:30"
        },
        {
          "eventId": 161992,
          "order": 2,
          "poiIdx": 1898,
          "poiName": "Ferry",
          "category": "Ferry",
          "emoji": "📍",
          "lat": 40.64440554,
          "lon": -74.07295704,
          "weekday": "周六",
          "hour": 7,
          "timeLabel": "07:47"
        },
        {
          "eventId": 162424,
          "order": 3,
          "poiIdx": 8736,
          "poiName": "Office",
          "category": "Office",
          "emoji": "💼",
          "lat": 40.72416908,
          "lon": -73.99721146,
          "weekday": "周日",
          "hour": 5,
          "timeLabel": "05:05"
        },
        {
          "eventId": 162598,
          "order": 4,
          "poiIdx": 2641,
          "poiName": "Factory",
          "category": "Factory",
          "emoji": "📍",
          "lat": 40.69957655,
          "lon": -73.97543192,
          "weekday": "周日",
          "hour": 15,
          "timeLabel": "15:01"
        },
        {
          "eventId": 162766,
          "order": 5,
          "poiIdx": 3044,
          "poiName": "Spa / Massage",
          "category": "Spa / Massage",
          "emoji": "📍",
          "lat": 40.72439899,
          "lon": -73.99753103,
          "weekday": "周一",
          "hour": 3,
          "timeLabel": "03:17"
        },
        {
          "eventId": 162771,
          "order": 6,
          "poiIdx": 839,
          "poiName": "Indian Restaurant",
          "category": "Indian Restaurant",
          "emoji": "🍽️",
          "lat": 40.723891,
          "lon": -73.996801,
          "weekday": "周一",
          "hour": 3,
          "timeLabel": "03:32"
        },
        {
          "eventId": 162777,
          "order": 7,
          "poiIdx": 8736,
          "poiName": "Office",
          "category": "Office",
          "emoji": "💼",
          "lat": 40.72416908,
          "lon": -73.99721146,
          "weekday": "周一",
          "hour": 3,
          "timeLabel": "03:51"
        },
        {
          "eventId": 162816,
          "order": 8,
          "poiIdx": 1239,
          "poiName": "Gym / Fitness Center",
          "category": "Gym / Fitness Center",
          "emoji": "🏋️",
          "lat": 40.72424,
          "lon": -73.997779,
          "weekday": "周一",
          "hour": 6,
          "timeLabel": "06:42"
        },
        {
          "eventId": 162983,
          "order": 9,
          "poiIdx": 7936,
          "poiName": "Train Station",
          "category": "Train Station",
          "emoji": "🚇",
          "lat": 40.7494759,
          "lon": -73.99223328,
          "weekday": "周一",
          "hour": 12,
          "timeLabel": "12:06"
        },
        {
          "eventId": 167918,
          "order": 10,
          "poiIdx": 3013,
          "poiName": "Taco Place",
          "category": "Taco Place",
          "emoji": "📍",
          "lat": 40.75081699,
          "lon": -73.99355292,
          "weekday": "周五",
          "hour": 6,
          "timeLabel": "06:27"
        },
        {
          "eventId": 167932,
          "order": 11,
          "poiIdx": 674,
          "poiName": "Train Station",
          "category": "Train Station",
          "emoji": "🚇",
          "lat": 40.7507948,
          "lon": -73.99357639,
          "weekday": "周五",
          "hour": 6,
          "timeLabel": "06:59"
        },
        {
          "eventId": 168232,
          "order": 12,
          "poiIdx": 1700,
          "poiName": "Mall",
          "category": "Mall",
          "emoji": "🛍️",
          "lat": 40.74895076,
          "lon": -73.98866452,
          "weekday": "周一",
          "hour": 6,
          "timeLabel": "06:48"
        },
        {
          "eventId": 168245,
          "order": 13,
          "poiIdx": 1812,
          "poiName": "Miscellaneous Shop",
          "category": "Miscellaneous Shop",
          "emoji": "📍",
          "lat": 40.74858212,
          "lon": -73.98942206,
          "weekday": "周一",
          "hour": 7,
          "timeLabel": "07:39"
        },
        {
          "eventId": 168434,
          "order": 14,
          "poiIdx": 674,
          "poiName": "Train Station",
          "category": "Train Station",
          "emoji": "🚇",
          "lat": 40.7507948,
          "lon": -73.99357639,
          "weekday": "周一",
          "hour": 16,
          "timeLabel": "16:58"
        },
        {
          "eventId": 168446,
          "order": 15,
          "poiIdx": 3074,
          "poiName": "Stadium",
          "category": "Stadium",
          "emoji": "📍",
          "lat": 40.75044987,
          "lon": -73.99221104,
          "weekday": "周一",
          "hour": 17,
          "timeLabel": "17:19"
        },
        {
          "eventId": 168583,
          "order": 16,
          "poiIdx": 7086,
          "poiName": "Indian Restaurant",
          "category": "Indian Restaurant",
          "emoji": "🍽️",
          "lat": 40.74301101,
          "lon": -73.99104618,
          "weekday": "周一",
          "hour": 21,
          "timeLabel": "21:09"
        },
        {
          "eventId": 168720,
          "order": 17,
          "poiIdx": 1,
          "poiName": "Fried Chicken Joint",
          "category": "Fried Chicken Joint",
          "emoji": "📍",
          "lat": 40.75005298,
          "lon": -73.99219036,
          "weekday": "周二",
          "hour": 7,
          "timeLabel": "07:41"
        },
        {
          "eventId": 169660,
          "order": 18,
          "poiIdx": 1,
          "poiName": "Fried Chicken Joint",
          "category": "Fried Chicken Joint",
          "emoji": "📍",
          "lat": 40.75005298,
          "lon": -73.99219036,
          "weekday": "周六",
          "hour": 0,
          "timeLabel": "00:52"
        },
        {
          "eventId": 169697,
          "order": 19,
          "poiIdx": 1225,
          "poiName": "BBQ Joint",
          "category": "BBQ Joint",
          "emoji": "📍",
          "lat": 40.75047969,
          "lon": -73.99461575,
          "weekday": "周六",
          "hour": 5,
          "timeLabel": "05:39"
        },
        {
          "eventId": 169828,
          "order": 20,
          "poiIdx": 3074,
          "poiName": "Stadium",
          "category": "Stadium",
          "emoji": "📍",
          "lat": 40.75044987,
          "lon": -73.99221104,
          "weekday": "周六",
          "hour": 13,
          "timeLabel": "13:24"
        },
        {
          "eventId": 170073,
          "order": 21,
          "poiIdx": 7821,
          "poiName": "Airport",
          "category": "Airport",
          "emoji": "📍",
          "lat": 40.64401203,
          "lon": -73.78260644,
          "weekday": "周六",
          "hour": 21,
          "timeLabel": "21:52"
        },
        {
          "eventId": 170126,
          "order": 22,
          "poiIdx": 775,
          "poiName": "Airport",
          "category": "Airport",
          "emoji": "📍",
          "lat": 40.64508936,
          "lon": -73.78452301,
          "weekday": "周六",
          "hour": 23,
          "timeLabel": "23:39"
        },
        {
          "eventId": 171714,
          "order": 23,
          "poiIdx": 975,
          "poiName": "Art Gallery",
          "category": "Art Gallery",
          "emoji": "🎨",
          "lat": 40.74261579,
          "lon": -74.00707427,
          "weekday": "周三",
          "hour": 19,
          "timeLabel": "19:11"
        },
        {
          "eventId": 171821,
          "order": 24,
          "poiIdx": 1,
          "poiName": "Fried Chicken Joint",
          "category": "Fried Chicken Joint",
          "emoji": "📍",
          "lat": 40.75005298,
          "lon": -73.99219036,
          "weekday": "周三",
          "hour": 22,
          "timeLabel": "22:56"
        },
        {
          "eventId": 172387,
          "order": 25,
          "poiIdx": 3074,
          "poiName": "Stadium",
          "category": "Stadium",
          "emoji": "📍",
          "lat": 40.75044987,
          "lon": -73.99221104,
          "weekday": "周五",
          "hour": 0,
          "timeLabel": "00:38"
        },
        {
          "eventId": 172402,
          "order": 26,
          "poiIdx": 2645,
          "poiName": "Hotel",
          "category": "Hotel",
          "emoji": "📍",
          "lat": 40.74996471,
          "lon": -73.99120113,
          "weekday": "周五",
          "hour": 1,
          "timeLabel": "01:04"
        },
        {
          "eventId": 172415,
          "order": 27,
          "poiIdx": 3013,
          "poiName": "Taco Place",
          "category": "Taco Place",
          "emoji": "📍",
          "lat": 40.75081699,
          "lon": -73.99355292,
          "weekday": "周五",
          "hour": 1,
          "timeLabel": "01:40"
        },
        {
          "eventId": 172431,
          "order": 28,
          "poiIdx": 7821,
          "poiName": "Airport",
          "category": "Airport",
          "emoji": "📍",
          "lat": 40.64401203,
          "lon": -73.78260644,
          "weekday": "周五",
          "hour": 4,
          "timeLabel": "04:49"
        },
        {
          "eventId": 172437,
          "order": 29,
          "poiIdx": 775,
          "poiName": "Airport",
          "category": "Airport",
          "emoji": "📍",
          "lat": 40.64508936,
          "lon": -73.78452301,
          "weekday": "周五",
          "hour": 5,
          "timeLabel": "05:09"
        },
        {
          "eventId": 172675,
          "order": 30,
          "poiIdx": 3074,
          "poiName": "Stadium",
          "category": "Stadium",
          "emoji": "📍",
          "lat": 40.75044987,
          "lon": -73.99221104,
          "weekday": "周五",
          "hour": 14,
          "timeLabel": "14:13"
        },
        {
          "eventId": 172773,
          "order": 31,
          "poiIdx": 3013,
          "poiName": "Taco Place",
          "category": "Taco Place",
          "emoji": "📍",
          "lat": 40.75081699,
          "lon": -73.99355292,
          "weekday": "周五",
          "hour": 17,
          "timeLabel": "17:53"
        },
        {
          "eventId": 173105,
          "order": 32,
          "poiIdx": 674,
          "poiName": "Train Station",
          "category": "Train Station",
          "emoji": "🚇",
          "lat": 40.7507948,
          "lon": -73.99357639,
          "weekday": "周六",
          "hour": 10,
          "timeLabel": "10:00"
        },
        {
          "eventId": 173422,
          "order": 33,
          "poiIdx": 6097,
          "poiName": "Playground",
          "category": "Playground",
          "emoji": "📍",
          "lat": 40.65,
          "lon": -73.949856,
          "weekday": "周六",
          "hour": 20,
          "timeLabel": "20:19"
        },
        {
          "eventId": 173586,
          "order": 34,
          "poiIdx": 3074,
          "poiName": "Stadium",
          "category": "Stadium",
          "emoji": "📍",
          "lat": 40.75044987,
          "lon": -73.99221104,
          "weekday": "周日",
          "hour": 3,
          "timeLabel": "03:40"
        },
        {
          "eventId": 173587,
          "order": 35,
          "poiIdx": 1,
          "poiName": "Fried Chicken Joint",
          "category": "Fried Chicken Joint",
          "emoji": "📍",
          "lat": 40.75005298,
          "lon": -73.99219036,
          "weekday": "周日",
          "hour": 3,
          "timeLabel": "03:42"
        },
        {
          "eventId": 173592,
          "order": 36,
          "poiIdx": 3013,
          "poiName": "Taco Place",
          "category": "Taco Place",
          "emoji": "📍",
          "lat": 40.75081699,
          "lon": -73.99355292,
          "weekday": "周日",
          "hour": 4,
          "timeLabel": "04:20"
        },
        {
          "eventId": 173618,
          "order": 37,
          "poiIdx": 8359,
          "poiName": "Library",
          "category": "Library",
          "emoji": "📍",
          "lat": 40.75201987,
          "lon": -73.98174047,
          "weekday": "周日",
          "hour": 8,
          "timeLabel": "08:44"
        },
        {
          "eventId": 173628,
          "order": 38,
          "poiIdx": 2914,
          "poiName": "Other Great Outdoors",
          "category": "Other Great Outdoors",
          "emoji": "📍",
          "lat": 40.78411592,
          "lon": -73.96772861,
          "weekday": "周日",
          "hour": 9,
          "timeLabel": "09:36"
        },
        {
          "eventId": 175292,
          "order": 39,
          "poiIdx": 3750,
          "poiName": "Library",
          "category": "Library",
          "emoji": "📍",
          "lat": 40.77322938,
          "lon": -73.9846158,
          "weekday": "周四",
          "hour": 7,
          "timeLabel": "07:39"
        },
        {
          "eventId": 175306,
          "order": 40,
          "poiIdx": 8985,
          "poiName": "General Entertainment",
          "category": "General Entertainment",
          "emoji": "📍",
          "lat": 40.77211222,
          "lon": -73.98436598,
          "weekday": "周四",
          "hour": 7,
          "timeLabel": "07:51"
        },
        {
          "eventId": 175439,
          "order": 41,
          "poiIdx": 70,
          "poiName": "Performing Arts Venue",
          "category": "Performing Arts Venue",
          "emoji": "🎨",
          "lat": 40.77253079,
          "lon": -73.98344198,
          "weekday": "周四",
          "hour": 11,
          "timeLabel": "11:12"
        },
        {
          "eventId": 175451,
          "order": 42,
          "poiIdx": 1181,
          "poiName": "Theater",
          "category": "Theater",
          "emoji": "📍",
          "lat": 40.77212438,
          "lon": -73.98369312,
          "weekday": "周四",
          "hour": 11,
          "timeLabel": "11:52"
        },
        {
          "eventId": 175739,
          "order": 43,
          "poiIdx": 1592,
          "poiName": "Theater",
          "category": "Theater",
          "emoji": "📍",
          "lat": 40.77199437,
          "lon": -73.98347855,
          "weekday": "周四",
          "hour": 21,
          "timeLabel": "21:03"
        },
        {
          "eventId": 175796,
          "order": 44,
          "poiIdx": 3074,
          "poiName": "Stadium",
          "category": "Stadium",
          "emoji": "📍",
          "lat": 40.75044987,
          "lon": -73.99221104,
          "weekday": "周四",
          "hour": 22,
          "timeLabel": "22:41"
        },
        {
          "eventId": 175803,
          "order": 45,
          "poiIdx": 674,
          "poiName": "Train Station",
          "category": "Train Station",
          "emoji": "🚇",
          "lat": 40.7507948,
          "lon": -73.99357639,
          "weekday": "周四",
          "hour": 22,
          "timeLabel": "22:58"
        },
        {
          "eventId": 175886,
          "order": 46,
          "poiIdx": 1,
          "poiName": "Fried Chicken Joint",
          "category": "Fried Chicken Joint",
          "emoji": "📍",
          "lat": 40.75005298,
          "lon": -73.99219036,
          "weekday": "周五",
          "hour": 2,
          "timeLabel": "02:37"
        },
        {
          "eventId": 175927,
          "order": 47,
          "poiIdx": 3085,
          "poiName": "School",
          "category": "School",
          "emoji": "🏫",
          "lat": 40.7736556,
          "lon": -73.98337311,
          "weekday": "周五",
          "hour": 6,
          "timeLabel": "06:19"
        },
        {
          "eventId": 176033,
          "order": 48,
          "poiIdx": 9498,
          "poiName": "Donut Shop",
          "category": "Donut Shop",
          "emoji": "📍",
          "lat": 40.75005855,
          "lon": -73.99215952,
          "weekday": "周日",
          "hour": 11,
          "timeLabel": "11:12"
        },
        {
          "eventId": 176045,
          "order": 49,
          "poiIdx": 70,
          "poiName": "Performing Arts Venue",
          "category": "Performing Arts Venue",
          "emoji": "🎨",
          "lat": 40.77253079,
          "lon": -73.98344198,
          "weekday": "周日",
          "hour": 11,
          "timeLabel": "11:35"
        },
        {
          "eventId": 176356,
          "order": 50,
          "poiIdx": 3074,
          "poiName": "Stadium",
          "category": "Stadium",
          "emoji": "📍",
          "lat": 40.75044987,
          "lon": -73.99221104,
          "weekday": "周一",
          "hour": 1,
          "timeLabel": "01:45"
        }
      ],
      "targetCheckin": {
        "eventId": 176747,
        "order": 51,
        "poiIdx": 674,
        "poiName": "Train Station",
        "category": "Train Station",
        "emoji": "🚇",
        "lat": 40.7507948,
        "lon": -73.99357639,
        "weekday": "周一",
        "hour": 18,
        "timeLabel": "18:56"
      }
    },
    {
      "userId": 328,
      "userIdx": 338,
      "userLabel": "User 328",
      "borough": "Brooklyn · 周四预测",
      "color": "#d97706",
      "weekday": "周四",
      "predictionEventId": 178104,
      "checkins": [
        {
          "eventId": 137213,
          "order": 1,
          "poiIdx": 1478,
          "poiName": "French Restaurant",
          "category": "French Restaurant",
          "emoji": "🍽️",
          "lat": 40.7099506,
          "lon": -74.00893271,
          "weekday": "周日",
          "hour": 17,
          "timeLabel": "17:51"
        },
        {
          "eventId": 137627,
          "order": 2,
          "poiIdx": 1688,
          "poiName": "Mexican Restaurant",
          "category": "Mexican Restaurant",
          "emoji": "🍽️",
          "lat": 40.70428724,
          "lon": -74.01012135,
          "weekday": "周一",
          "hour": 12,
          "timeLabel": "12:05"
        },
        {
          "eventId": 138589,
          "order": 3,
          "poiIdx": 9690,
          "poiName": "Greek Restaurant",
          "category": "Greek Restaurant",
          "emoji": "🍽️",
          "lat": 40.70990758,
          "lon": -74.00703984,
          "weekday": "周四",
          "hour": 20,
          "timeLabel": "20:53"
        },
        {
          "eventId": 139163,
          "order": 4,
          "poiIdx": 1478,
          "poiName": "French Restaurant",
          "category": "French Restaurant",
          "emoji": "🍽️",
          "lat": 40.7099506,
          "lon": -74.00893271,
          "weekday": "周五",
          "hour": 21,
          "timeLabel": "21:40"
        },
        {
          "eventId": 139565,
          "order": 5,
          "poiIdx": 390,
          "poiName": "Bar",
          "category": "Bar",
          "emoji": "🍸",
          "lat": 40.71978728,
          "lon": -73.98724125,
          "weekday": "周六",
          "hour": 14,
          "timeLabel": "14:29"
        },
        {
          "eventId": 139860,
          "order": 6,
          "poiIdx": 7728,
          "poiName": "Mexican Restaurant",
          "category": "Mexican Restaurant",
          "emoji": "🍽️",
          "lat": 40.7643038,
          "lon": -73.988262,
          "weekday": "周六",
          "hour": 22,
          "timeLabel": "22:19"
        },
        {
          "eventId": 140066,
          "order": 7,
          "poiIdx": 7724,
          "poiName": "Other Great Outdoors",
          "category": "Other Great Outdoors",
          "emoji": "📍",
          "lat": 40.70445914,
          "lon": -74.00578312,
          "weekday": "周日",
          "hour": 8,
          "timeLabel": "08:51"
        },
        {
          "eventId": 141172,
          "order": 8,
          "poiIdx": 9690,
          "poiName": "Greek Restaurant",
          "category": "Greek Restaurant",
          "emoji": "🍽️",
          "lat": 40.70990758,
          "lon": -74.00703984,
          "weekday": "周二",
          "hour": 20,
          "timeLabel": "20:56"
        },
        {
          "eventId": 141971,
          "order": 9,
          "poiIdx": 4907,
          "poiName": "Gym / Fitness Center",
          "category": "Gym / Fitness Center",
          "emoji": "🏋️",
          "lat": 40.707353,
          "lon": -74.004935,
          "weekday": "周四",
          "hour": 9,
          "timeLabel": "09:08"
        },
        {
          "eventId": 142012,
          "order": 10,
          "poiIdx": 6764,
          "poiName": "General Entertainment",
          "category": "General Entertainment",
          "emoji": "📍",
          "lat": 40.75857035,
          "lon": -73.98021698,
          "weekday": "周四",
          "hour": 10,
          "timeLabel": "10:39"
        },
        {
          "eventId": 142463,
          "order": 11,
          "poiIdx": 366,
          "poiName": "Gastropub",
          "category": "Gastropub",
          "emoji": "🍸",
          "lat": 40.70430345,
          "lon": -74.010173,
          "weekday": "周五",
          "hour": 12,
          "timeLabel": "12:55"
        },
        {
          "eventId": 142661,
          "order": 12,
          "poiIdx": 1478,
          "poiName": "French Restaurant",
          "category": "French Restaurant",
          "emoji": "🍽️",
          "lat": 40.7099506,
          "lon": -74.00893271,
          "weekday": "周五",
          "hour": 19,
          "timeLabel": "19:56"
        },
        {
          "eventId": 142863,
          "order": 13,
          "poiIdx": 4907,
          "poiName": "Gym / Fitness Center",
          "category": "Gym / Fitness Center",
          "emoji": "🏋️",
          "lat": 40.707353,
          "lon": -74.004935,
          "weekday": "周六",
          "hour": 10,
          "timeLabel": "10:01"
        },
        {
          "eventId": 142930,
          "order": 14,
          "poiIdx": 2667,
          "poiName": "American Restaurant",
          "category": "American Restaurant",
          "emoji": "🍽️",
          "lat": 40.70480648,
          "lon": -74.00986612,
          "weekday": "周六",
          "hour": 12,
          "timeLabel": "12:38"
        },
        {
          "eventId": 143387,
          "order": 15,
          "poiIdx": 7724,
          "poiName": "Other Great Outdoors",
          "category": "Other Great Outdoors",
          "emoji": "📍",
          "lat": 40.70445914,
          "lon": -74.00578312,
          "weekday": "周日",
          "hour": 10,
          "timeLabel": "10:17"
        },
        {
          "eventId": 143465,
          "order": 16,
          "poiIdx": 370,
          "poiName": "Bar",
          "category": "Bar",
          "emoji": "🍸",
          "lat": 40.70423809,
          "lon": -74.01015578,
          "weekday": "周日",
          "hour": 13,
          "timeLabel": "13:07"
        },
        {
          "eventId": 145910,
          "order": 17,
          "poiIdx": 2667,
          "poiName": "American Restaurant",
          "category": "American Restaurant",
          "emoji": "🍽️",
          "lat": 40.70480648,
          "lon": -74.00986612,
          "weekday": "周六",
          "hour": 13,
          "timeLabel": "13:53"
        },
        {
          "eventId": 146064,
          "order": 18,
          "poiIdx": 7182,
          "poiName": "Bar",
          "category": "Bar",
          "emoji": "🍸",
          "lat": 40.708226,
          "lon": -74.004974,
          "weekday": "周六",
          "hour": 18,
          "timeLabel": "18:40"
        },
        {
          "eventId": 146118,
          "order": 19,
          "poiIdx": 2003,
          "poiName": "Southern / Soul Food Restaurant",
          "category": "Southern / Soul Food Restaurant",
          "emoji": "🍽️",
          "lat": 40.70838587,
          "lon": -74.00035446,
          "weekday": "周六",
          "hour": 20,
          "timeLabel": "20:31"
        },
        {
          "eventId": 147890,
          "order": 20,
          "poiIdx": 2003,
          "poiName": "Southern / Soul Food Restaurant",
          "category": "Southern / Soul Food Restaurant",
          "emoji": "🍽️",
          "lat": 40.70838587,
          "lon": -74.00035446,
          "weekday": "周二",
          "hour": 20,
          "timeLabel": "20:09"
        },
        {
          "eventId": 150223,
          "order": 21,
          "poiIdx": 4907,
          "poiName": "Gym / Fitness Center",
          "category": "Gym / Fitness Center",
          "emoji": "🏋️",
          "lat": 40.707353,
          "lon": -74.004935,
          "weekday": "周六",
          "hour": 9,
          "timeLabel": "09:43"
        },
        {
          "eventId": 150875,
          "order": 22,
          "poiIdx": 4907,
          "poiName": "Gym / Fitness Center",
          "category": "Gym / Fitness Center",
          "emoji": "🏋️",
          "lat": 40.707353,
          "lon": -74.004935,
          "weekday": "周日",
          "hour": 9,
          "timeLabel": "09:02"
        },
        {
          "eventId": 150975,
          "order": 23,
          "poiIdx": 370,
          "poiName": "Bar",
          "category": "Bar",
          "emoji": "🍸",
          "lat": 40.70423809,
          "lon": -74.01015578,
          "weekday": "周日",
          "hour": 13,
          "timeLabel": "13:10"
        },
        {
          "eventId": 151648,
          "order": 24,
          "poiIdx": 1869,
          "poiName": "Italian Restaurant",
          "category": "Italian Restaurant",
          "emoji": "🍽️",
          "lat": 40.70820111,
          "lon": -74.00198996,
          "weekday": "周一",
          "hour": 19,
          "timeLabel": "19:28"
        },
        {
          "eventId": 151699,
          "order": 25,
          "poiIdx": 2003,
          "poiName": "Southern / Soul Food Restaurant",
          "category": "Southern / Soul Food Restaurant",
          "emoji": "🍽️",
          "lat": 40.70838587,
          "lon": -74.00035446,
          "weekday": "周一",
          "hour": 20,
          "timeLabel": "20:27"
        },
        {
          "eventId": 153938,
          "order": 26,
          "poiIdx": 4907,
          "poiName": "Gym / Fitness Center",
          "category": "Gym / Fitness Center",
          "emoji": "🏋️",
          "lat": 40.707353,
          "lon": -74.004935,
          "weekday": "周六",
          "hour": 10,
          "timeLabel": "10:14"
        },
        {
          "eventId": 154039,
          "order": 27,
          "poiIdx": 316,
          "poiName": "Bar",
          "category": "Bar",
          "emoji": "🍸",
          "lat": 40.749767,
          "lon": -73.985442,
          "weekday": "周六",
          "hour": 13,
          "timeLabel": "13:25"
        },
        {
          "eventId": 154061,
          "order": 28,
          "poiIdx": 8594,
          "poiName": "Bar",
          "category": "Bar",
          "emoji": "🍸",
          "lat": 40.76000064,
          "lon": -73.9964819,
          "weekday": "周六",
          "hour": 13,
          "timeLabel": "13:49"
        },
        {
          "eventId": 157272,
          "order": 29,
          "poiIdx": 1869,
          "poiName": "Italian Restaurant",
          "category": "Italian Restaurant",
          "emoji": "🍽️",
          "lat": 40.70820111,
          "lon": -74.00198996,
          "weekday": "周五",
          "hour": 19,
          "timeLabel": "19:16"
        },
        {
          "eventId": 158095,
          "order": 30,
          "poiIdx": 2635,
          "poiName": "Food & Drink Shop",
          "category": "Food & Drink Shop",
          "emoji": "📍",
          "lat": 40.70693481,
          "lon": -74.0018465,
          "weekday": "周日",
          "hour": 12,
          "timeLabel": "12:28"
        },
        {
          "eventId": 158109,
          "order": 31,
          "poiIdx": 370,
          "poiName": "Bar",
          "category": "Bar",
          "emoji": "🍸",
          "lat": 40.70423809,
          "lon": -74.01015578,
          "weekday": "周日",
          "hour": 13,
          "timeLabel": "13:06"
        },
        {
          "eventId": 158943,
          "order": 32,
          "poiIdx": 1869,
          "poiName": "Italian Restaurant",
          "category": "Italian Restaurant",
          "emoji": "🍽️",
          "lat": 40.70820111,
          "lon": -74.00198996,
          "weekday": "周五",
          "hour": 21,
          "timeLabel": "21:05"
        },
        {
          "eventId": 159479,
          "order": 33,
          "poiIdx": 4907,
          "poiName": "Gym / Fitness Center",
          "category": "Gym / Fitness Center",
          "emoji": "🏋️",
          "lat": 40.707353,
          "lon": -74.004935,
          "weekday": "周日",
          "hour": 10,
          "timeLabel": "10:41"
        },
        {
          "eventId": 159553,
          "order": 34,
          "poiIdx": 370,
          "poiName": "Bar",
          "category": "Bar",
          "emoji": "🍸",
          "lat": 40.70423809,
          "lon": -74.01015578,
          "weekday": "周日",
          "hour": 13,
          "timeLabel": "13:59"
        },
        {
          "eventId": 160076,
          "order": 35,
          "poiIdx": 2667,
          "poiName": "American Restaurant",
          "category": "American Restaurant",
          "emoji": "🍽️",
          "lat": 40.70480648,
          "lon": -74.00986612,
          "weekday": "周一",
          "hour": 19,
          "timeLabel": "19:40"
        },
        {
          "eventId": 160316,
          "order": 36,
          "poiIdx": 4907,
          "poiName": "Gym / Fitness Center",
          "category": "Gym / Fitness Center",
          "emoji": "🏋️",
          "lat": 40.707353,
          "lon": -74.004935,
          "weekday": "周二",
          "hour": 10,
          "timeLabel": "10:02"
        },
        {
          "eventId": 160357,
          "order": 37,
          "poiIdx": 533,
          "poiName": "Bar",
          "category": "Bar",
          "emoji": "🍸",
          "lat": 40.70443641,
          "lon": -74.01012361,
          "weekday": "周二",
          "hour": 12,
          "timeLabel": "12:38"
        },
        {
          "eventId": 164167,
          "order": 38,
          "poiIdx": 775,
          "poiName": "Airport",
          "category": "Airport",
          "emoji": "📍",
          "lat": 40.64508936,
          "lon": -73.78452301,
          "weekday": "周三",
          "hour": 19,
          "timeLabel": "19:47"
        },
        {
          "eventId": 165930,
          "order": 39,
          "poiIdx": 340,
          "poiName": "Bar",
          "category": "Bar",
          "emoji": "🍸",
          "lat": 40.709734,
          "lon": -74.008903,
          "weekday": "周日",
          "hour": 14,
          "timeLabel": "14:17"
        },
        {
          "eventId": 169788,
          "order": 40,
          "poiIdx": 7182,
          "poiName": "Bar",
          "category": "Bar",
          "emoji": "🍸",
          "lat": 40.708226,
          "lon": -74.004974,
          "weekday": "周六",
          "hour": 11,
          "timeLabel": "11:57"
        },
        {
          "eventId": 170229,
          "order": 41,
          "poiIdx": 4907,
          "poiName": "Gym / Fitness Center",
          "category": "Gym / Fitness Center",
          "emoji": "🏋️",
          "lat": 40.707353,
          "lon": -74.004935,
          "weekday": "周日",
          "hour": 10,
          "timeLabel": "10:44"
        },
        {
          "eventId": 170894,
          "order": 42,
          "poiIdx": 4907,
          "poiName": "Gym / Fitness Center",
          "category": "Gym / Fitness Center",
          "emoji": "🏋️",
          "lat": 40.707353,
          "lon": -74.004935,
          "weekday": "周二",
          "hour": 6,
          "timeLabel": "06:48"
        },
        {
          "eventId": 171387,
          "order": 43,
          "poiIdx": 4907,
          "poiName": "Gym / Fitness Center",
          "category": "Gym / Fitness Center",
          "emoji": "🏋️",
          "lat": 40.707353,
          "lon": -74.004935,
          "weekday": "周三",
          "hour": 6,
          "timeLabel": "06:46"
        },
        {
          "eventId": 172466,
          "order": 44,
          "poiIdx": 4907,
          "poiName": "Gym / Fitness Center",
          "category": "Gym / Fitness Center",
          "emoji": "🏋️",
          "lat": 40.707353,
          "lon": -74.004935,
          "weekday": "周五",
          "hour": 6,
          "timeLabel": "06:49"
        },
        {
          "eventId": 173075,
          "order": 45,
          "poiIdx": 4907,
          "poiName": "Gym / Fitness Center",
          "category": "Gym / Fitness Center",
          "emoji": "🏋️",
          "lat": 40.707353,
          "lon": -74.004935,
          "weekday": "周六",
          "hour": 8,
          "timeLabel": "08:32"
        },
        {
          "eventId": 173619,
          "order": 46,
          "poiIdx": 4907,
          "poiName": "Gym / Fitness Center",
          "category": "Gym / Fitness Center",
          "emoji": "🏋️",
          "lat": 40.707353,
          "lon": -74.004935,
          "weekday": "周日",
          "hour": 8,
          "timeLabel": "08:48"
        },
        {
          "eventId": 174347,
          "order": 47,
          "poiIdx": 4907,
          "poiName": "Gym / Fitness Center",
          "category": "Gym / Fitness Center",
          "emoji": "🏋️",
          "lat": 40.707353,
          "lon": -74.004935,
          "weekday": "周二",
          "hour": 6,
          "timeLabel": "06:38"
        },
        {
          "eventId": 175075,
          "order": 48,
          "poiIdx": 366,
          "poiName": "Gastropub",
          "category": "Gastropub",
          "emoji": "🍸",
          "lat": 40.70430345,
          "lon": -74.010173,
          "weekday": "周三",
          "hour": 20,
          "timeLabel": "20:16"
        },
        {
          "eventId": 175268,
          "order": 49,
          "poiIdx": 4907,
          "poiName": "Gym / Fitness Center",
          "category": "Gym / Fitness Center",
          "emoji": "🏋️",
          "lat": 40.707353,
          "lon": -74.004935,
          "weekday": "周四",
          "hour": 6,
          "timeLabel": "06:31"
        },
        {
          "eventId": 176036,
          "order": 50,
          "poiIdx": 9632,
          "poiName": "Coffee Shop",
          "category": "Coffee Shop",
          "emoji": "☕",
          "lat": 40.70927151,
          "lon": -74.00545029,
          "weekday": "周日",
          "hour": 11,
          "timeLabel": "11:20"
        }
      ],
      "targetCheckin": {
        "eventId": 178104,
        "order": 51,
        "poiIdx": 4907,
        "poiName": "Gym / Fitness Center",
        "category": "Gym / Fitness Center",
        "emoji": "🏋️",
        "lat": 40.707353,
        "lon": -74.004935,
        "weekday": "周四",
        "hour": 6,
        "timeLabel": "06:39"
      }
    },
    {
      "userId": 204,
      "userIdx": 201,
      "userLabel": "User 204",
      "borough": "Queens · 周三预测",
      "color": "#7c3aed",
      "weekday": "周三",
      "predictionEventId": 177735,
      "checkins": [
        {
          "eventId": 54270,
          "order": 1,
          "poiIdx": 5869,
          "poiName": "College Academic Building",
          "category": "College Academic Building",
          "emoji": "📍",
          "lat": 40.63137918,
          "lon": -73.95144224,
          "weekday": "周二",
          "hour": 16,
          "timeLabel": "16:14"
        },
        {
          "eventId": 54359,
          "order": 2,
          "poiIdx": 2628,
          "poiName": "Coffee Shop",
          "category": "Coffee Shop",
          "emoji": "☕",
          "lat": 40.71388621,
          "lon": -74.0089622,
          "weekday": "周二",
          "hour": 17,
          "timeLabel": "17:17"
        },
        {
          "eventId": 54477,
          "order": 3,
          "poiIdx": 4056,
          "poiName": "Subway",
          "category": "Subway",
          "emoji": "🚇",
          "lat": 40.6804753,
          "lon": -73.84372473,
          "weekday": "周二",
          "hour": 18,
          "timeLabel": "18:25"
        },
        {
          "eventId": 57845,
          "order": 4,
          "poiIdx": 5869,
          "poiName": "College Academic Building",
          "category": "College Academic Building",
          "emoji": "📍",
          "lat": 40.63137918,
          "lon": -73.95144224,
          "weekday": "周四",
          "hour": 17,
          "timeLabel": "17:01"
        },
        {
          "eventId": 58021,
          "order": 5,
          "poiIdx": 4299,
          "poiName": "Coffee Shop",
          "category": "Coffee Shop",
          "emoji": "☕",
          "lat": 40.632195,
          "lon": -73.94833088,
          "weekday": "周四",
          "hour": 19,
          "timeLabel": "19:07"
        },
        {
          "eventId": 61788,
          "order": 6,
          "poiIdx": 5106,
          "poiName": "Coffee Shop",
          "category": "Coffee Shop",
          "emoji": "☕",
          "lat": 40.68454006,
          "lon": -73.9777372,
          "weekday": "周一",
          "hour": 19,
          "timeLabel": "19:21"
        },
        {
          "eventId": 63301,
          "order": 7,
          "poiIdx": 4599,
          "poiName": "Paper / Office Supplies Store",
          "category": "Paper / Office Supplies Store",
          "emoji": "💼",
          "lat": 40.64659355,
          "lon": -73.9580389,
          "weekday": "周三",
          "hour": 18,
          "timeLabel": "18:09"
        },
        {
          "eventId": 64819,
          "order": 8,
          "poiIdx": 6102,
          "poiName": "Department Store",
          "category": "Department Store",
          "emoji": "🎨",
          "lat": 40.66128088,
          "lon": -73.72556172,
          "weekday": "周五",
          "hour": 15,
          "timeLabel": "15:44"
        },
        {
          "eventId": 65025,
          "order": 9,
          "poiIdx": 6599,
          "poiName": "Food & Drink Shop",
          "category": "Food & Drink Shop",
          "emoji": "📍",
          "lat": 40.59017514,
          "lon": -73.79955928,
          "weekday": "周五",
          "hour": 17,
          "timeLabel": "17:58"
        },
        {
          "eventId": 72176,
          "order": 10,
          "poiIdx": 2599,
          "poiName": "Coffee Shop",
          "category": "Coffee Shop",
          "emoji": "☕",
          "lat": 40.710421,
          "lon": -74.007762,
          "weekday": "周五",
          "hour": 14,
          "timeLabel": "14:09"
        },
        {
          "eventId": 72193,
          "order": 11,
          "poiIdx": 2081,
          "poiName": "Park",
          "category": "Park",
          "emoji": "🌳",
          "lat": 40.70919832,
          "lon": -74.01118577,
          "weekday": "周五",
          "hour": 14,
          "timeLabel": "14:19"
        },
        {
          "eventId": 73641,
          "order": 12,
          "poiIdx": 6599,
          "poiName": "Food & Drink Shop",
          "category": "Food & Drink Shop",
          "emoji": "📍",
          "lat": 40.59017514,
          "lon": -73.79955928,
          "weekday": "周日",
          "hour": 17,
          "timeLabel": "17:17"
        },
        {
          "eventId": 76718,
          "order": 13,
          "poiIdx": 3965,
          "poiName": "Coffee Shop",
          "category": "Coffee Shop",
          "emoji": "☕",
          "lat": 40.74774465,
          "lon": -73.98530245,
          "weekday": "周三",
          "hour": 18,
          "timeLabel": "18:22"
        },
        {
          "eventId": 76721,
          "order": 14,
          "poiIdx": 1400,
          "poiName": "Coffee Shop",
          "category": "Coffee Shop",
          "emoji": "☕",
          "lat": 40.74845179,
          "lon": -73.98507714,
          "weekday": "周三",
          "hour": 18,
          "timeLabel": "18:24"
        },
        {
          "eventId": 76768,
          "order": 15,
          "poiIdx": 5924,
          "poiName": "Clothing Store",
          "category": "Clothing Store",
          "emoji": "📍",
          "lat": 40.74942776,
          "lon": -73.986719,
          "weekday": "周三",
          "hour": 18,
          "timeLabel": "18:47"
        },
        {
          "eventId": 76797,
          "order": 16,
          "poiIdx": 8316,
          "poiName": "Clothing Store",
          "category": "Clothing Store",
          "emoji": "📍",
          "lat": 40.74954093,
          "lon": -73.98661137,
          "weekday": "周三",
          "hour": 19,
          "timeLabel": "19:02"
        },
        {
          "eventId": 76806,
          "order": 17,
          "poiIdx": 1608,
          "poiName": "Clothing Store",
          "category": "Clothing Store",
          "emoji": "📍",
          "lat": 40.74995545,
          "lon": -73.9875555,
          "weekday": "周三",
          "hour": 19,
          "timeLabel": "19:06"
        },
        {
          "eventId": 79188,
          "order": 18,
          "poiIdx": 5885,
          "poiName": "Pizza Place",
          "category": "Pizza Place",
          "emoji": "📍",
          "lat": 40.679037,
          "lon": -73.86382,
          "weekday": "周五",
          "hour": 14,
          "timeLabel": "14:21"
        },
        {
          "eventId": 81698,
          "order": 19,
          "poiIdx": 7365,
          "poiName": "Mosque",
          "category": "Mosque",
          "emoji": "📍",
          "lat": 40.71334357,
          "lon": -73.76955906,
          "weekday": "周日",
          "hour": 11,
          "timeLabel": "11:41"
        },
        {
          "eventId": 82040,
          "order": 20,
          "poiIdx": 6599,
          "poiName": "Food & Drink Shop",
          "category": "Food & Drink Shop",
          "emoji": "📍",
          "lat": 40.59017514,
          "lon": -73.79955928,
          "weekday": "周日",
          "hour": 16,
          "timeLabel": "16:51"
        },
        {
          "eventId": 83190,
          "order": 21,
          "poiIdx": 917,
          "poiName": "Mall",
          "category": "Mall",
          "emoji": "🛍️",
          "lat": 40.73405558,
          "lon": -73.87084723,
          "weekday": "周一",
          "hour": 14,
          "timeLabel": "14:56"
        },
        {
          "eventId": 84327,
          "order": 22,
          "poiIdx": 2929,
          "poiName": "Coffee Shop",
          "category": "Coffee Shop",
          "emoji": "☕",
          "lat": 40.763562,
          "lon": -73.985278,
          "weekday": "周二",
          "hour": 13,
          "timeLabel": "13:46"
        },
        {
          "eventId": 84407,
          "order": 23,
          "poiIdx": 790,
          "poiName": "Mall",
          "category": "Mall",
          "emoji": "🛍️",
          "lat": 40.76792357,
          "lon": -73.98194432,
          "weekday": "周二",
          "hour": 15,
          "timeLabel": "15:15"
        },
        {
          "eventId": 86940,
          "order": 24,
          "poiIdx": 6599,
          "poiName": "Food & Drink Shop",
          "category": "Food & Drink Shop",
          "emoji": "📍",
          "lat": 40.59017514,
          "lon": -73.79955928,
          "weekday": "周六",
          "hour": 16,
          "timeLabel": "16:49"
        },
        {
          "eventId": 87884,
          "order": 25,
          "poiIdx": 7365,
          "poiName": "Mosque",
          "category": "Mosque",
          "emoji": "📍",
          "lat": 40.71334357,
          "lon": -73.76955906,
          "weekday": "周日",
          "hour": 13,
          "timeLabel": "13:02"
        },
        {
          "eventId": 89335,
          "order": 26,
          "poiIdx": 6599,
          "poiName": "Food & Drink Shop",
          "category": "Food & Drink Shop",
          "emoji": "📍",
          "lat": 40.59017514,
          "lon": -73.79955928,
          "weekday": "周一",
          "hour": 14,
          "timeLabel": "14:55"
        },
        {
          "eventId": 99708,
          "order": 27,
          "poiIdx": 6599,
          "poiName": "Food & Drink Shop",
          "category": "Food & Drink Shop",
          "emoji": "📍",
          "lat": 40.59017514,
          "lon": -73.79955928,
          "weekday": "周日",
          "hour": 20,
          "timeLabel": "20:43"
        },
        {
          "eventId": 104207,
          "order": 28,
          "poiIdx": 2599,
          "poiName": "Coffee Shop",
          "category": "Coffee Shop",
          "emoji": "☕",
          "lat": 40.710421,
          "lon": -74.007762,
          "weekday": "周五",
          "hour": 14,
          "timeLabel": "14:12"
        },
        {
          "eventId": 119961,
          "order": 29,
          "poiIdx": 6599,
          "poiName": "Food & Drink Shop",
          "category": "Food & Drink Shop",
          "emoji": "📍",
          "lat": 40.59017514,
          "lon": -73.79955928,
          "weekday": "周日",
          "hour": 17,
          "timeLabel": "17:01"
        },
        {
          "eventId": 122749,
          "order": 30,
          "poiIdx": 5885,
          "poiName": "Pizza Place",
          "category": "Pizza Place",
          "emoji": "📍",
          "lat": 40.679037,
          "lon": -73.86382,
          "weekday": "周五",
          "hour": 14,
          "timeLabel": "14:12"
        },
        {
          "eventId": 122777,
          "order": 31,
          "poiIdx": 6599,
          "poiName": "Food & Drink Shop",
          "category": "Food & Drink Shop",
          "emoji": "📍",
          "lat": 40.59017514,
          "lon": -73.79955928,
          "weekday": "周五",
          "hour": 15,
          "timeLabel": "15:09"
        },
        {
          "eventId": 133201,
          "order": 32,
          "poiIdx": 9774,
          "poiName": "Cemetery",
          "category": "Cemetery",
          "emoji": "📍",
          "lat": 40.74890933,
          "lon": -73.96507014,
          "weekday": "周三",
          "hour": 16,
          "timeLabel": "16:15"
        },
        {
          "eventId": 138357,
          "order": 33,
          "poiIdx": 6599,
          "poiName": "Food & Drink Shop",
          "category": "Food & Drink Shop",
          "emoji": "📍",
          "lat": 40.59017514,
          "lon": -73.79955928,
          "weekday": "周四",
          "hour": 14,
          "timeLabel": "14:48"
        },
        {
          "eventId": 139671,
          "order": 34,
          "poiIdx": 6599,
          "poiName": "Food & Drink Shop",
          "category": "Food & Drink Shop",
          "emoji": "📍",
          "lat": 40.59017514,
          "lon": -73.79955928,
          "weekday": "周六",
          "hour": 17,
          "timeLabel": "17:00"
        },
        {
          "eventId": 142536,
          "order": 35,
          "poiIdx": 2554,
          "poiName": "Coffee Shop",
          "category": "Coffee Shop",
          "emoji": "☕",
          "lat": 40.66144182,
          "lon": -73.84009838,
          "weekday": "周五",
          "hour": 15,
          "timeLabel": "15:22"
        },
        {
          "eventId": 145324,
          "order": 36,
          "poiIdx": 5885,
          "poiName": "Pizza Place",
          "category": "Pizza Place",
          "emoji": "📍",
          "lat": 40.679037,
          "lon": -73.86382,
          "weekday": "周五",
          "hour": 14,
          "timeLabel": "14:44"
        },
        {
          "eventId": 146409,
          "order": 37,
          "poiIdx": 7365,
          "poiName": "Mosque",
          "category": "Mosque",
          "emoji": "📍",
          "lat": 40.71334357,
          "lon": -73.76955906,
          "weekday": "周日",
          "hour": 11,
          "timeLabel": "11:28"
        },
        {
          "eventId": 146544,
          "order": 38,
          "poiIdx": 6599,
          "poiName": "Food & Drink Shop",
          "category": "Food & Drink Shop",
          "emoji": "📍",
          "lat": 40.59017514,
          "lon": -73.79955928,
          "weekday": "周日",
          "hour": 15,
          "timeLabel": "15:21"
        },
        {
          "eventId": 151508,
          "order": 39,
          "poiIdx": 6599,
          "poiName": "Food & Drink Shop",
          "category": "Food & Drink Shop",
          "emoji": "📍",
          "lat": 40.59017514,
          "lon": -73.79955928,
          "weekday": "周一",
          "hour": 14,
          "timeLabel": "14:35"
        },
        {
          "eventId": 153519,
          "order": 40,
          "poiIdx": 5945,
          "poiName": "Food & Drink Shop",
          "category": "Food & Drink Shop",
          "emoji": "📍",
          "lat": 40.6912465,
          "lon": -73.81213367,
          "weekday": "周五",
          "hour": 17,
          "timeLabel": "17:17"
        },
        {
          "eventId": 157135,
          "order": 41,
          "poiIdx": 5376,
          "poiName": "Fast Food Restaurant",
          "category": "Fast Food Restaurant",
          "emoji": "🍽️",
          "lat": 40.67943385,
          "lon": -73.86189938,
          "weekday": "周五",
          "hour": 14,
          "timeLabel": "14:54"
        },
        {
          "eventId": 158759,
          "order": 42,
          "poiIdx": 5920,
          "poiName": "Donut Shop",
          "category": "Donut Shop",
          "emoji": "📍",
          "lat": 40.6744282,
          "lon": -73.80472929,
          "weekday": "周五",
          "hour": 14,
          "timeLabel": "14:33"
        },
        {
          "eventId": 166012,
          "order": 43,
          "poiIdx": 6599,
          "poiName": "Food & Drink Shop",
          "category": "Food & Drink Shop",
          "emoji": "📍",
          "lat": 40.59017514,
          "lon": -73.79955928,
          "weekday": "周日",
          "hour": 17,
          "timeLabel": "17:00"
        },
        {
          "eventId": 168146,
          "order": 44,
          "poiIdx": 5885,
          "poiName": "Pizza Place",
          "category": "Pizza Place",
          "emoji": "📍",
          "lat": 40.679037,
          "lon": -73.86382,
          "weekday": "周五",
          "hour": 14,
          "timeLabel": "14:24"
        },
        {
          "eventId": 168194,
          "order": 45,
          "poiIdx": 6599,
          "poiName": "Food & Drink Shop",
          "category": "Food & Drink Shop",
          "emoji": "📍",
          "lat": 40.59017514,
          "lon": -73.79955928,
          "weekday": "周五",
          "hour": 16,
          "timeLabel": "16:10"
        },
        {
          "eventId": 170781,
          "order": 46,
          "poiIdx": 2554,
          "poiName": "Coffee Shop",
          "category": "Coffee Shop",
          "emoji": "☕",
          "lat": 40.66144182,
          "lon": -73.84009838,
          "weekday": "周一",
          "hour": 15,
          "timeLabel": "15:11"
        },
        {
          "eventId": 172060,
          "order": 47,
          "poiIdx": 1794,
          "poiName": "Coffee Shop",
          "category": "Coffee Shop",
          "emoji": "☕",
          "lat": 40.76139825,
          "lon": -73.96798013,
          "weekday": "周四",
          "hour": 12,
          "timeLabel": "12:27"
        },
        {
          "eventId": 172068,
          "order": 48,
          "poiIdx": 849,
          "poiName": "Electronics Store",
          "category": "Electronics Store",
          "emoji": "📍",
          "lat": 40.7639385,
          "lon": -73.9730883,
          "weekday": "周四",
          "hour": 12,
          "timeLabel": "12:44"
        },
        {
          "eventId": 172676,
          "order": 49,
          "poiIdx": 5885,
          "poiName": "Pizza Place",
          "category": "Pizza Place",
          "emoji": "📍",
          "lat": 40.679037,
          "lon": -73.86382,
          "weekday": "周五",
          "hour": 14,
          "timeLabel": "14:13"
        },
        {
          "eventId": 175540,
          "order": 50,
          "poiIdx": 2554,
          "poiName": "Coffee Shop",
          "category": "Coffee Shop",
          "emoji": "☕",
          "lat": 40.66144182,
          "lon": -73.84009838,
          "weekday": "周四",
          "hour": 15,
          "timeLabel": "15:12"
        }
      ],
      "targetCheckin": {
        "eventId": 177735,
        "order": 51,
        "poiIdx": 6599,
        "poiName": "Food & Drink Shop",
        "category": "Food & Drink Shop",
        "emoji": "📍",
        "lat": 40.59017514,
        "lon": -73.79955928,
        "weekday": "周三",
        "hour": 13,
        "timeLabel": "13:43"
      }
    },
    {
      "userId": 970,
      "userIdx": 1047,
      "userLabel": "User 970",
      "borough": "Queens / Bronx · 周四预测",
      "color": "#db2777",
      "weekday": "周四",
      "predictionEventId": 175812,
      "checkins": [
        {
          "eventId": 108932,
          "order": 1,
          "poiIdx": 3226,
          "poiName": "Electronics Store",
          "category": "Electronics Store",
          "emoji": "📍",
          "lat": 40.7747305,
          "lon": -73.98209328,
          "weekday": "周日",
          "hour": 10,
          "timeLabel": "10:00"
        },
        {
          "eventId": 108951,
          "order": 2,
          "poiIdx": 7231,
          "poiName": "Electronics Store",
          "category": "Electronics Store",
          "emoji": "📍",
          "lat": 40.80340488,
          "lon": -73.967112,
          "weekday": "周日",
          "hour": 10,
          "timeLabel": "10:32"
        },
        {
          "eventId": 112675,
          "order": 3,
          "poiIdx": 775,
          "poiName": "Airport",
          "category": "Airport",
          "emoji": "📍",
          "lat": 40.64508936,
          "lon": -73.78452301,
          "weekday": "周日",
          "hour": 14,
          "timeLabel": "14:17"
        },
        {
          "eventId": 113318,
          "order": 4,
          "poiIdx": 2110,
          "poiName": "Gym / Fitness Center",
          "category": "Gym / Fitness Center",
          "emoji": "🏋️",
          "lat": 40.800356,
          "lon": -73.94687168,
          "weekday": "周四",
          "hour": 6,
          "timeLabel": "06:35"
        },
        {
          "eventId": 114121,
          "order": 5,
          "poiIdx": 710,
          "poiName": "Bar",
          "category": "Bar",
          "emoji": "🍸",
          "lat": 40.739871,
          "lon": -74.0069882,
          "weekday": "周五",
          "hour": 0,
          "timeLabel": "00:23"
        },
        {
          "eventId": 115486,
          "order": 6,
          "poiIdx": 866,
          "poiName": "Other Great Outdoors",
          "category": "Other Great Outdoors",
          "emoji": "📍",
          "lat": 40.69118179,
          "lon": -74.01678085,
          "weekday": "周六",
          "hour": 18,
          "timeLabel": "18:29"
        },
        {
          "eventId": 116010,
          "order": 7,
          "poiIdx": 5659,
          "poiName": "Beer Garden",
          "category": "Beer Garden",
          "emoji": "📍",
          "lat": 40.80267822,
          "lon": -73.95649486,
          "weekday": "周日",
          "hour": 14,
          "timeLabel": "14:32"
        },
        {
          "eventId": 116665,
          "order": 8,
          "poiIdx": 2252,
          "poiName": "Food & Drink Shop",
          "category": "Food & Drink Shop",
          "emoji": "📍",
          "lat": 40.80428215,
          "lon": -73.96649931,
          "weekday": "周一",
          "hour": 18,
          "timeLabel": "18:37"
        },
        {
          "eventId": 116974,
          "order": 9,
          "poiIdx": 2110,
          "poiName": "Gym / Fitness Center",
          "category": "Gym / Fitness Center",
          "emoji": "🏋️",
          "lat": 40.800356,
          "lon": -73.94687168,
          "weekday": "周二",
          "hour": 6,
          "timeLabel": "06:25"
        },
        {
          "eventId": 119156,
          "order": 10,
          "poiIdx": 5659,
          "poiName": "Beer Garden",
          "category": "Beer Garden",
          "emoji": "📍",
          "lat": 40.80267822,
          "lon": -73.95649486,
          "weekday": "周六",
          "hour": 14,
          "timeLabel": "14:11"
        },
        {
          "eventId": 119369,
          "order": 11,
          "poiIdx": 279,
          "poiName": "Bar",
          "category": "Bar",
          "emoji": "🍸",
          "lat": 40.729616,
          "lon": -73.98697995,
          "weekday": "周六",
          "hour": 18,
          "timeLabel": "18:28"
        },
        {
          "eventId": 119508,
          "order": 12,
          "poiIdx": 4507,
          "poiName": "Middle Eastern Restaurant",
          "category": "Middle Eastern Restaurant",
          "emoji": "🍽️",
          "lat": 40.72845796,
          "lon": -73.98778645,
          "weekday": "周六",
          "hour": 21,
          "timeLabel": "21:35"
        },
        {
          "eventId": 119929,
          "order": 13,
          "poiIdx": 7530,
          "poiName": "Other Great Outdoors",
          "category": "Other Great Outdoors",
          "emoji": "📍",
          "lat": 40.77210813,
          "lon": -73.97590399,
          "weekday": "周日",
          "hour": 16,
          "timeLabel": "16:24"
        },
        {
          "eventId": 123252,
          "order": 14,
          "poiIdx": 1305,
          "poiName": "Bar",
          "category": "Bar",
          "emoji": "🍸",
          "lat": 40.72302981,
          "lon": -73.98893999,
          "weekday": "周五",
          "hour": 23,
          "timeLabel": "23:39"
        },
        {
          "eventId": 124232,
          "order": 15,
          "poiIdx": 1155,
          "poiName": "Music Venue",
          "category": "Music Venue",
          "emoji": "📍",
          "lat": 40.71749324,
          "lon": -74.00106579,
          "weekday": "周日",
          "hour": 0,
          "timeLabel": "00:48"
        },
        {
          "eventId": 125456,
          "order": 16,
          "poiIdx": 2757,
          "poiName": "University",
          "category": "University",
          "emoji": "🏫",
          "lat": 40.75385326,
          "lon": -73.98238598,
          "weekday": "周五",
          "hour": 9,
          "timeLabel": "09:09"
        },
        {
          "eventId": 125779,
          "order": 17,
          "poiIdx": 9023,
          "poiName": "Bar",
          "category": "Bar",
          "emoji": "🍸",
          "lat": 40.74980915,
          "lon": -73.98567796,
          "weekday": "周五",
          "hour": 19,
          "timeLabel": "19:12"
        },
        {
          "eventId": 126138,
          "order": 18,
          "poiIdx": 2757,
          "poiName": "University",
          "category": "University",
          "emoji": "🏫",
          "lat": 40.75385326,
          "lon": -73.98238598,
          "weekday": "周六",
          "hour": 9,
          "timeLabel": "09:37"
        },
        {
          "eventId": 126395,
          "order": 19,
          "poiIdx": 2110,
          "poiName": "Gym / Fitness Center",
          "category": "Gym / Fitness Center",
          "emoji": "🏋️",
          "lat": 40.800356,
          "lon": -73.94687168,
          "weekday": "周二",
          "hour": 11,
          "timeLabel": "11:32"
        },
        {
          "eventId": 126716,
          "order": 20,
          "poiIdx": 2110,
          "poiName": "Gym / Fitness Center",
          "category": "Gym / Fitness Center",
          "emoji": "🏋️",
          "lat": 40.800356,
          "lon": -73.94687168,
          "weekday": "周三",
          "hour": 8,
          "timeLabel": "08:40"
        },
        {
          "eventId": 130026,
          "order": 21,
          "poiIdx": 2110,
          "poiName": "Gym / Fitness Center",
          "category": "Gym / Fitness Center",
          "emoji": "🏋️",
          "lat": 40.800356,
          "lon": -73.94687168,
          "weekday": "周四",
          "hour": 11,
          "timeLabel": "11:21"
        },
        {
          "eventId": 131895,
          "order": 22,
          "poiIdx": 4574,
          "poiName": "Stadium",
          "category": "Stadium",
          "emoji": "📍",
          "lat": 40.68312,
          "lon": -73.975979,
          "weekday": "周六",
          "hour": 20,
          "timeLabel": "20:05"
        },
        {
          "eventId": 135393,
          "order": 23,
          "poiIdx": 9782,
          "poiName": "Moving Target",
          "category": "Moving Target",
          "emoji": "📍",
          "lat": 40.78448486,
          "lon": -73.97842407,
          "weekday": "周二",
          "hour": 21,
          "timeLabel": "21:39"
        },
        {
          "eventId": 136489,
          "order": 24,
          "poiIdx": 9636,
          "poiName": "Bus Station",
          "category": "Bus Station",
          "emoji": "🚇",
          "lat": 40.75619498,
          "lon": -74.00298273,
          "weekday": "周六",
          "hour": 15,
          "timeLabel": "15:33"
        },
        {
          "eventId": 137837,
          "order": 25,
          "poiIdx": 2757,
          "poiName": "University",
          "category": "University",
          "emoji": "🏫",
          "lat": 40.75385326,
          "lon": -73.98238598,
          "weekday": "周一",
          "hour": 18,
          "timeLabel": "18:21"
        },
        {
          "eventId": 141796,
          "order": 26,
          "poiIdx": 39,
          "poiName": "Music Venue",
          "category": "Music Venue",
          "emoji": "📍",
          "lat": 40.76323947,
          "lon": -73.98394702,
          "weekday": "周三",
          "hour": 23,
          "timeLabel": "23:12"
        },
        {
          "eventId": 142224,
          "order": 27,
          "poiIdx": 9799,
          "poiName": "Other Great Outdoors",
          "category": "Other Great Outdoors",
          "emoji": "📍",
          "lat": 40.75141843,
          "lon": -73.98330688,
          "weekday": "周四",
          "hour": 21,
          "timeLabel": "21:59"
        },
        {
          "eventId": 142537,
          "order": 28,
          "poiIdx": 1728,
          "poiName": "Other Great Outdoors",
          "category": "Other Great Outdoors",
          "emoji": "📍",
          "lat": 40.78447336,
          "lon": -73.96120548,
          "weekday": "周五",
          "hour": 15,
          "timeLabel": "15:23"
        },
        {
          "eventId": 143187,
          "order": 29,
          "poiIdx": 39,
          "poiName": "Music Venue",
          "category": "Music Venue",
          "emoji": "📍",
          "lat": 40.76323947,
          "lon": -73.98394702,
          "weekday": "周六",
          "hour": 22,
          "timeLabel": "22:17"
        },
        {
          "eventId": 145649,
          "order": 30,
          "poiIdx": 39,
          "poiName": "Music Venue",
          "category": "Music Venue",
          "emoji": "📍",
          "lat": 40.76323947,
          "lon": -73.98394702,
          "weekday": "周五",
          "hour": 23,
          "timeLabel": "23:39"
        },
        {
          "eventId": 145951,
          "order": 31,
          "poiIdx": 7652,
          "poiName": "University",
          "category": "University",
          "emoji": "🏫",
          "lat": 40.73442717,
          "lon": -73.99384101,
          "weekday": "周六",
          "hour": 15,
          "timeLabel": "15:22"
        },
        {
          "eventId": 147107,
          "order": 32,
          "poiIdx": 735,
          "poiName": "General College & University",
          "category": "General College & University",
          "emoji": "🏫",
          "lat": 40.75457327,
          "lon": -73.98157675,
          "weekday": "周一",
          "hour": 15,
          "timeLabel": "15:46"
        },
        {
          "eventId": 148929,
          "order": 33,
          "poiIdx": 2110,
          "poiName": "Gym / Fitness Center",
          "category": "Gym / Fitness Center",
          "emoji": "🏋️",
          "lat": 40.800356,
          "lon": -73.94687168,
          "weekday": "周四",
          "hour": 11,
          "timeLabel": "11:44"
        },
        {
          "eventId": 149231,
          "order": 34,
          "poiIdx": 949,
          "poiName": "College Academic Building",
          "category": "College Academic Building",
          "emoji": "📍",
          "lat": 40.72962472,
          "lon": -73.99666429,
          "weekday": "周四",
          "hour": 20,
          "timeLabel": "20:43"
        },