{
  "generatedAt": "2026-07-16T09:43:31.067217+00:00",
  "source": "train_encoded.csv + poi_metadata.csv",
  "users": [
    {
      "userIdx": 299,
      "userLabel": "User #299",
      "borough": "Brooklyn · 1",
      "color": "#e11d48",
      "weekday": "1",
      "checkins": [
        {
          "order": 1,
          "poiIdx": 3087,
          "poiName": "Subway",
          "category": "Subway",
          "emoji": "🚇",
          "lat": 40.7255768,
          "lon": -74.004252,
          "weekday": "1",
          "hour": 19,
          "timeLabel": "19:56"
        },
        {
          "order": 2,
          "poiIdx": 7092,
          "poiName": "Other Great Outdoors",
          "category": "Other Great Outdoors",
          "emoji": "📍",
          "lat": 40.71408826,
          "lon": -73.94940591,
          "weekday": "1",
          "hour": 20,
          "timeLabel": "20:19"
        },
        {
          "order": 3,
          "poiIdx": 531,
          "poiName": "Bar",
          "category": "Bar",
          "emoji": "🍸",
          "lat": 40.71365005,
          "lon": -73.94946331,
          "weekday": "1",
          "hour": 20,
          "timeLabel": "20:19"
        },
        {
          "order": 4,
          "poiIdx": 7106,
          "poiName": "Smoke Shop",
          "category": "Smoke Shop",
          "emoji": "📍",
          "lat": 40.71595074,
          "lon": -73.94959534,
          "weekday": "1",
          "hour": 20,
          "timeLabel": "20:21"
        },
        {
          "order": 5,
          "poiIdx": 6437,
          "poiName": "Neighborhood",
          "category": "Neighborhood",
          "emoji": "📍",
          "lat": 40.6501689,
          "lon": -73.94957542,
          "weekday": "2",
          "hour": 0,
          "timeLabel": "00:53"
        },
        {
          "order": 6,
          "poiIdx": 7092,
          "poiName": "Other Great Outdoors",
          "category": "Other Great Outdoors",
          "emoji": "📍",
          "lat": 40.71408826,
          "lon": -73.94940591,
          "weekday": "2",
          "hour": 0,
          "timeLabel": "00:53"
        },
        {
          "order": 7,
          "poiIdx": 8197,
          "poiName": "Bus Station",
          "category": "Bus Station",
          "emoji": "🚇",
          "lat": 40.70402767,
          "lon": -73.94822344,
          "weekday": "2",
          "hour": 1,
          "timeLabel": "01:08"
        },
        {
          "order": 8,
          "poiIdx": 7038,
          "poiName": "Home (private)",
          "category": "Home (private)",
          "emoji": "🏠",
          "lat": 40.69321218,
          "lon": -73.93010371,
          "weekday": "2",
          "hour": 11,
          "timeLabel": "11:38"
        },
        {
          "order": 9,
          "poiIdx": 8066,
          "poiName": "Home (private)",
          "category": "Home (private)",
          "emoji": "🏠",
          "lat": 40.69321218,
          "lon": -73.93010371,
          "weekday": "2",
          "hour": 12,
          "timeLabel": "12:16"
        },
        {
          "order": 10,
          "poiIdx": 6960,
          "poiName": "General Travel",
          "category": "General Travel",
          "emoji": "📍",
          "lat": 40.688968,
          "lon": -73.92908473,
          "weekday": "2",
          "hour": 12,
          "timeLabel": "12:18"
        },
        {
          "order": 11,
          "poiIdx": 3354,
          "poiName": "Subway",
          "category": "Subway",
          "emoji": "🚇",
          "lat": 40.67933621,
          "lon": -73.93028498,
          "weekday": "2",
          "hour": 12,
          "timeLabel": "12:20"
        },
        {
          "order": 12,
          "poiIdx": 3488,
          "poiName": "Subway",
          "category": "Subway",
          "emoji": "🚇",
          "lat": 40.7679967,
          "lon": -73.98189068,
          "weekday": "2",
          "hour": 13,
          "timeLabel": "13:38"
        },
        {
          "order": 13,
          "poiIdx": 7372,
          "poiName": "Office",
          "category": "Office",
          "emoji": "💼",
          "lat": 40.76825653,
          "lon": -73.98291398,
          "weekday": "2",
          "hour": 13,
          "timeLabel": "13:40"
        },
        {
          "order": 14,
          "poiIdx": 3087,
          "poiName": "Subway",
          "category": "Subway",
          "emoji": "🚇",
          "lat": 40.7255768,
          "lon": -74.004252,
          "weekday": "2",
          "hour": 14,
          "timeLabel": "14:14"
        },
        {
          "order": 15,
          "poiIdx": 2590,
          "poiName": "Park",
          "category": "Park",
          "emoji": "🌳",
          "lat": 40.72678506,
          "lon": -74.00346747,
          "weekday": "2",
          "hour": 14,
          "timeLabel": "14:16"
        },
        {
          "order": 16,
          "poiIdx": 3950,
          "poiName": "Paper / Office Supplies Store",
          "category": "Paper / Office Supplies Store",
          "emoji": "💼",
          "lat": 40.72702213,
          "lon": -74.00527814,
          "weekday": "2",
          "hour": 14,
          "timeLabel": "14:18"
        },
        {
          "order": 17,
          "poiIdx": 7382,
          "poiName": "Road",
          "category": "Road",
          "emoji": "📍",
          "lat": 40.72584842,
          "lon": -74.00399271,
          "weekday": "2",
          "hour": 19,
          "timeLabel": "19:55"
        },
        {
          "order": 18,
          "poiIdx": 3087,
          "poiName": "Subway",
          "category": "Subway",
          "emoji": "🚇",
          "lat": 40.7255768,
          "lon": -74.004252,
          "weekday": "2",
          "hour": 19,
          "timeLabel": "19:56"
        },
        {
          "order": 19,
          "poiIdx": 7092,
          "poiName": "Other Great Outdoors",
          "category": "Other Great Outdoors",
          "emoji": "📍",
          "lat": 40.71408826,
          "lon": -73.94940591,
          "weekday": "2",
          "hour": 20,
          "timeLabel": "20:18"
        },
        {
          "order": 20,
          "poiIdx": 6437,
          "poiName": "Neighborhood",
          "category": "Neighborhood",
          "emoji": "📍",
          "lat": 40.6501689,
          "lon": -73.94957542,
          "weekday": "2",
          "hour": 20,
          "timeLabel": "20:19"
        },
        {
          "order": 21,
          "poiIdx": 7106,
          "poiName": "Smoke Shop",
          "category": "Smoke Shop",
          "emoji": "📍",
          "lat": 40.71595074,
          "lon": -73.94959534,
          "weekday": "2",
          "hour": 20,
          "timeLabel": "20:20"
        },
        {
          "order": 22,
          "poiIdx": 7038,
          "poiName": "Home (private)",
          "category": "Home (private)",
          "emoji": "🏠",
          "lat": 40.69321218,
          "lon": -73.93010371,
          "weekday": "4",
          "hour": 11,
          "timeLabel": "11:35"
        },
        {
          "order": 23,
          "poiIdx": 6952,
          "poiName": "Home (private)",
          "category": "Home (private)",
          "emoji": "🏠",
          "lat": 40.69321218,
          "lon": -73.93010371,
          "weekday": "4",
          "hour": 11,
          "timeLabel": "11:35"
        },
        {
          "order": 24,
          "poiIdx": 8066,
          "poiName": "Home (private)",
          "category": "Home (private)",
          "emoji": "🏠",
          "lat": 40.69321218,
          "lon": -73.93010371,
          "weekday": "4",
          "hour": 12,
          "timeLabel": "12:13"
        },
        {
          "order": 25,
          "poiIdx": 4195,
          "poiName": "Food & Drink Shop",
          "category": "Food & Drink Shop",
          "emoji": "📍",
          "lat": 40.690652,
          "lon": -73.92427,
          "weekday": "4",
          "hour": 12,
          "timeLabel": "12:20"
        },
        {
          "order": 26,
          "poiIdx": 4154,
          "poiName": "Drugstore / Pharmacy",
          "category": "Drugstore / Pharmacy",
          "emoji": "📍",
          "lat": 40.68927818,
          "lon": -73.92219543,
          "weekday": "4",
          "hour": 12,
          "timeLabel": "12:37"
        },
        {
          "order": 27,
          "poiIdx": 8705,
          "poiName": "Bus Station",
          "category": "Bus Station",
          "emoji": "🚇",
          "lat": 40.68950166,
          "lon": -73.92258609,
          "weekday": "4",
          "hour": 12,
          "timeLabel": "12:38"
        },
        {
          "order": 28,
          "poiIdx": 7092,
          "poiName": "Other Great Outdoors",
          "category": "Other Great Outdoors",
          "emoji": "📍",
          "lat": 40.71408826,
          "lon": -73.94940591,
          "weekday": "4",
          "hour": 20,
          "timeLabel": "20:14"
        },
        {
          "order": 29,
          "poiIdx": 7106,
          "poiName": "Smoke Shop",
          "category": "Smoke Shop",
          "emoji": "📍",
          "lat": 40.71595074,
          "lon": -73.94959534,
          "weekday": "4",
          "hour": 20,
          "timeLabel": "20:15"
        },
        {
          "order": 30,
          "poiIdx": 7038,
          "poiName": "Home (private)",
          "category": "Home (private)",
          "emoji": "🏠",
          "lat": 40.69321218,
          "lon": -73.93010371,
          "weekday": "5",
          "hour": 15,
          "timeLabel": "15:38"
        },
        {
          "order": 31,
          "poiIdx": 8066,
          "poiName": "Home (private)",
          "category": "Home (private)",
          "emoji": "🏠",
          "lat": 40.69321218,
          "lon": -73.93010371,
          "weekday": "5",
          "hour": 18,
          "timeLabel": "18:57"
        },
        {
          "order": 32,
          "poiIdx": 8335,
          "poiName": "General Travel",
          "category": "General Travel",
          "emoji": "📍",
          "lat": 40.70408638,
          "lon": -73.94807993,
          "weekday": "5",
          "hour": 19,
          "timeLabel": "19:33"
        },
        {
          "order": 33,
          "poiIdx": 7092,
          "poiName": "Other Great Outdoors",
          "category": "Other Great Outdoors",
          "emoji": "📍",
          "lat": 40.71408826,
          "lon": -73.94940591,
          "weekday": "5",
          "hour": 19,
          "timeLabel": "19:50"
        },
        {
          "order": 34,
          "poiIdx": 6437,
          "poiName": "Neighborhood",
          "category": "Neighborhood",
          "emoji": "📍",
          "lat": 40.6501689,
          "lon": -73.94957542,
          "weekday": "5",
          "hour": 19,
          "timeLabel": "19:52"
        },
        {
          "order": 35,
          "poiIdx": 7106,
          "poiName": "Smoke Shop",
          "category": "Smoke Shop",
          "emoji": "📍",
          "lat": 40.71595074,
          "lon": -73.94959534,
          "weekday": "5",
          "hour": 19,
          "timeLabel": "19:53"
        },
        {
          "order": 36,
          "poiIdx": 7092,
          "poiName": "Other Great Outdoors",
          "category": "Other Great Outdoors",
          "emoji": "📍",
          "lat": 40.71408826,
          "lon": -73.94940591,
          "weekday": "6",
          "hour": 3,
          "timeLabel": "03:40"
        },
        {
          "order": 37,
          "poiIdx": 6437,
          "poiName": "Neighborhood",
          "category": "Neighborhood",
          "emoji": "📍",
          "lat": 40.6501689,
          "lon": -73.94957542,
          "weekday": "6",
          "hour": 3,
          "timeLabel": "03:41"
        },
        {
          "order": 38,
          "poiIdx": 8197,
          "poiName": "Bus Station",
          "category": "Bus Station",
          "emoji": "🚇",
          "lat": 40.70402767,
          "lon": -73.94822344,
          "weekday": "6",
          "hour": 4,
          "timeLabel": "04:33"
        },
        {
          "order": 39,
          "poiIdx": 7391,
          "poiName": "General Entertainment",
          "category": "General Entertainment",
          "emoji": "📍",
          "lat": 40.73939794,
          "lon": -73.99320973,
          "weekday": "6",
          "hour": 15,
          "timeLabel": "15:31"
        },
        {
          "order": 40,
          "poiIdx": 7038,
          "poiName": "Home (private)",
          "category": "Home (private)",
          "emoji": "🏠",
          "lat": 40.69321218,
          "lon": -73.93010371,
          "weekday": "0",
          "hour": 7,
          "timeLabel": "07:57"
        },
        {
          "order": 41,
          "poiIdx": 6952,
          "poiName": "Home (private)",
          "category": "Home (private)",
          "emoji": "🏠",
          "lat": 40.69321218,
          "lon": -73.93010371,
          "weekday": "0",
          "hour": 7,
          "timeLabel": "07:57"
        },
        {
          "order": 42,
          "poiIdx": 8066,
          "poiName": "Home (private)",
          "category": "Home (private)",
          "emoji": "🏠",
          "lat": 40.69321218,
          "lon": -73.93010371,
          "weekday": "0",
          "hour": 8,
          "timeLabel": "08:32"
        },
        {
          "order": 43,
          "poiIdx": 7449,
          "poiName": "Bus Station",
          "category": "Bus Station",
          "emoji": "🚇",
          "lat": 40.67528094,
          "lon": -73.93038787,
          "weekday": "0",
          "hour": 8,
          "timeLabel": "08:56"
        },
        {
          "order": 44,
          "poiIdx": 6960,
          "poiName": "General Travel",
          "category": "General Travel",
          "emoji": "📍",
          "lat": 40.688968,
          "lon": -73.92908473,
          "weekday": "0",
          "hour": 12,
          "timeLabel": "12:26"
        },
        {
          "order": 45,
          "poiIdx": 3354,
          "poiName": "Subway",
          "category": "Subway",
          "emoji": "🚇",
          "lat": 40.67933621,
          "lon": -73.93028498,
          "weekday": "0",
          "hour": 12,
          "timeLabel": "12:27"
        },
        {
          "order": 46,
          "poiIdx": 2590,
          "poiName": "Park",
          "category": "Park",
          "emoji": "🌳",
          "lat": 40.72678506,
          "lon": -74.00346747,
          "weekday": "0",
          "hour": 13,
          "timeLabel": "13:11"
        },
        {
          "order": 47,
          "poiIdx": 7092,
          "poiName": "Other Great Outdoors",
          "category": "Other Great Outdoors",
          "emoji": "📍",
          "lat": 40.71408826,
          "lon": -73.94940591,
          "weekday": "0",
          "hour": 20,
          "timeLabel": "20:22"
        },
        {
          "order": 48,
          "poiIdx": 6437,
          "poiName": "Neighborhood",
          "category": "Neighborhood",
          "emoji": "📍",
          "lat": 40.6501689,
          "lon": -73.94957542,
          "weekday": "0",
          "hour": 20,
          "timeLabel": "20:23"
        },
        {
          "order": 49,
          "poiIdx": 7106,
          "poiName": "Smoke Shop",
          "category": "Smoke Shop",
          "emoji": "📍",
          "lat": 40.71595074,
          "lon": -73.94959534,
          "weekday": "0",
          "hour": 20,
          "timeLabel": "20:23"
        },
        {
          "order": 50,
          "poiIdx": 6437,
          "poiName": "Neighborhood",
          "category": "Neighborhood",
          "emoji": "📍",
          "lat": 40.6501689,
          "lon": -73.94957542,
          "weekday": "1",
          "hour": 2,
          "timeLabel": "02:19"
        },
        {
          "order": 51,
          "poiIdx": 7092,
          "poiName": "Other Great Outdoors",
          "category": "Other Great Outdoors",
          "emoji": "📍",
          "lat": 40.71408826,
          "lon": -73.94940591,
          "weekday": "1",
          "hour": 2,
          "timeLabel": "02:20"
        },
        {
          "order": 52,
          "poiIdx": 8197,
          "poiName": "Bus Station",
          "category": "Bus Station",
          "emoji": "🚇",
          "lat": 40.70402767,
          "lon": -73.94822344,
          "weekday": "1",
          "hour": 3,
          "timeLabel": "03:00"
        },
        {
          "order": 53,
          "poiIdx": 8066,
          "poiName": "Home (private)",
          "category": "Home (private)",
          "emoji": "🏠",
          "lat": 40.69321218,
          "lon": -73.93010371,
          "weekday": "1",
          "hour": 12,
          "timeLabel": "12:15"
        },
        {
          "order": 54,
          "poiIdx": 6960,
          "poiName": "General Travel",
          "category": "General Travel",
          "emoji": "📍",
          "lat": 40.688968,
          "lon": -73.92908473,
          "weekday": "1",
          "hour": 12,
          "timeLabel": "12:17"
        },
        {
          "order": 55,
          "poiIdx": 3354,
          "poiName": "Subway",
          "category": "Subway",
          "emoji": "🚇",
          "lat": 40.67933621,
          "lon": -73.93028498,
          "weekday": "1",
          "hour": 12,
          "timeLabel": "12:17"
        },
        {
          "order": 56,
          "poiIdx": 2590,
          "poiName": "Park",
          "category": "Park",
          "emoji": "🌳",
          "lat": 40.72678506,
          "lon": -74.00346747,
          "weekday": "1",
          "hour": 13,
          "timeLabel": "13:14"
        },
        {
          "order": 57,
          "poiIdx": 4766,
          "poiName": "Convenience Store",
          "category": "Convenience Store",
          "emoji": "📍",
          "lat": 40.727205,
          "lon": -74.003234,
          "weekday": "1",
          "hour": 13,
          "timeLabel": "13:15"
        },
        {
          "order": 58,
          "poiIdx": 3950,
          "poiName": "Paper / Office Supplies Store",
          "category": "Paper / Office Supplies Store",
          "emoji": "💼",
          "lat": 40.72702213,
          "lon": -74.00527814,
          "weekday": "1",
          "hour": 13,
          "timeLabel": "13:20"
        },
        {
          "order": 59,
          "poiIdx": 3087,
          "poiName": "Subway",
          "category": "Subway",
          "emoji": "🚇",
          "lat": 40.7255768,
          "lon": -74.004252,
          "weekday": "1",
          "hour": 19,
          "timeLabel": "19:51"
        },
        {
          "order": 60,
          "poiIdx": 6437,
          "poiName": "Neighborhood",
          "category": "Neighborhood",
          "emoji": "📍",
          "lat": 40.6501689,
          "lon": -73.94957542,
          "weekday": "1",
          "hour": 20,
          "timeLabel": "20:12"
        },
        {
          "order": 61,
          "poiIdx": 6437,
          "poiName": "Neighborhood",
          "category": "Neighborhood",
          "emoji": "📍",
          "lat": 40.6501689,
          "lon": -73.94957542,
          "weekday": "2",
          "hour": 1,
          "timeLabel": "01:01"
        },
        {
          "order": 62,
          "poiIdx": 7092,
          "poiName": "Other Great Outdoors",
          "category": "Other Great Outdoors",
          "emoji": "📍",
          "lat": 40.71408826,
          "lon": -73.94940591,
          "weekday": "2",
          "hour": 1,
          "timeLabel": "01:01"
        },
        {
          "order": 63,
          "poiIdx": 8197,
          "poiName": "Bus Station",
          "category": "Bus Station",
          "emoji": "🚇",
          "lat": 40.70402767,
          "lon": -73.94822344,
          "weekday": "2",
          "hour": 1,
          "timeLabel": "01:18"
        },
        {
          "order": 64,
          "poiIdx": 6952,
          "poiName": "Home (private)",
          "category": "Home (private)",
          "emoji": "🏠",
          "lat": 40.69321218,
          "lon": -73.93010371,
          "weekday": "2",
          "hour": 12,
          "timeLabel": "12:27"
        },
        {
          "order": 65,
          "poiIdx": 8066,
          "poiName": "Home (private)",
          "category": "Home (private)",
          "emoji": "🏠",
          "lat": 40.69321218,
          "lon": -73.93010371,
          "weekday": "2",
          "hour": 12,
          "timeLabel": "12:33"
        },
        {
          "order": 66,
          "poiIdx": 3087,
          "poiName": "Subway",
          "category": "Subway",
          "emoji": "🚇",
          "lat": 40.7255768,
          "lon": -74.004252,
          "weekday": "2",
          "hour": 13,
          "timeLabel": "13:13"
        },
        {
          "order": 67,
          "poiIdx": 2590,
          "poiName": "Park",
          "category": "Park",
          "emoji": "🌳",
          "lat": 40.72678506,
          "lon": -74.00346747,
          "weekday": "2",
          "hour": 13,
          "timeLabel": "13:14"
        },
        {
          "order": 68,
          "poiIdx": 4766,
          "poiName": "Convenience Store",
          "category": "Convenience Store",
          "emoji": "📍",
          "lat": 40.727205,
          "lon": -74.003234,
          "weekday": "2",
          "hour": 13,
          "timeLabel": "13:16"
        },
        {
          "order": 69,
          "poiIdx": 1222,
          "poiName": "General Entertainment",
          "category": "General Entertainment",
          "emoji": "📍",
          "lat": 40.72692706,
          "lon": -74.00549046,
          "weekday": "2",
          "hour": 13,
          "timeLabel": "13:40"
        },
        {
          "order": 70,
          "poiIdx": 3087,
          "poiName": "Subway",
          "category": "Subway",
          "emoji": "🚇",
          "lat": 40.7255768,
          "lon": -74.004252,
          "weekday": "2",
          "hour": 19,
          "timeLabel": "19:55"
        },
        {
          "order": 71,
          "poiIdx": 7092,
          "poiName": "Other Great Outdoors",
          "category": "Other Great Outdoors",
          "emoji": "📍",
          "lat": 40.71408826,
          "lon": -73.94940591,
          "weekday": "2",
          "hour": 20,
          "timeLabel": "20:19"
        },
        {
          "order": 72,
          "poiIdx": 6437,
          "poiName": "Neighborhood",
          "category": "Neighborhood",
          "emoji": "📍",
          "lat": 40.6501689,
          "lon": -73.94957542,
          "weekday": "2",
          "hour": 20,
          "timeLabel": "20:20"
        },
        {
          "order": 73,
          "poiIdx": 7106,
          "poiName": "Smoke Shop",
          "category": "Smoke Shop",
          "emoji": "📍",
          "lat": 40.71595074,
          "lon": -73.94959534,
          "weekday": "2",
          "hour": 20,
          "timeLabel": "20:21"
        },
        {
          "order": 74,
          "poiIdx": 4875,
          "poiName": "Deli / Bodega",
          "category": "Deli / Bodega",
          "emoji": "📍",
          "lat": 40.71606901,
          "lon": -73.94973884,
          "weekday": "2",
          "hour": 22,
          "timeLabel": "22:34"
        },
        {
          "order": 75,
          "poiIdx": 6437,
          "poiName": "Neighborhood",
          "category": "Neighborhood",
          "emoji": "📍",
          "lat": 40.6501689,
          "lon": -73.94957542,
          "weekday": "3",
          "hour": 1,
          "timeLabel": "01:35"
        },
        {
          "order": 76,
          "poiIdx": 7092,
          "poiName": "Other Great Outdoors",
          "category": "Other Great Outdoors",
          "emoji": "📍",
          "lat": 40.71408826,
          "lon": -73.94940591,
          "weekday": "3",
          "hour": 1,
          "timeLabel": "01:36"
        },
        {
          "order": 77,
          "poiIdx": 8197,
          "poiName": "Bus Station",
          "category": "Bus Station",
          "emoji": "🚇",
          "lat": 40.70402767,
          "lon": -73.94822344,
          "weekday": "3",
          "hour": 1,
          "timeLabel": "01:51"
        },
        {
          "order": 78,
          "poiIdx": 3087,
          "poiName": "Subway",
          "category": "Subway",
          "emoji": "🚇",
          "lat": 40.7255768,
          "lon": -74.004252,
          "weekday": "3",
          "hour": 13,
          "timeLabel": "13:19"
        },
        {
          "order": 79,
          "poiIdx": 2590,
          "poiName": "Park",
          "category": "Park",
          "emoji": "🌳",
          "lat": 40.72678506,
          "lon": -74.00346747,
          "weekday": "3",
          "hour": 13,
          "timeLabel": "13:20"
        },
        {
          "order": 80,
          "poiIdx": 1222,
          "poiName": "General Entertainment",
          "category": "General Entertainment",
          "emoji": "📍",
          "lat": 40.72692706,
          "lon": -74.00549046,
          "weekday": "3",
          "hour": 13,
          "timeLabel": "13:45"
        },
        {
          "order": 81,
          "poiIdx": 4326,
          "poiName": "Bank",
          "category": "Bank",
          "emoji": "📍",
          "lat": 40.72747809,
          "lon": -74.00735545,
          "weekday": "3",
          "hour": 19,
          "timeLabel": "19:58"
        },
        {
          "order": 82,
          "poiIdx": 3087,
          "poiName": "Subway",
          "category": "Subway",
          "emoji": "🚇",
          "lat": 40.7255768,
          "lon": -74.004252,
          "weekday": "3",
          "hour": 20,
          "timeLabel": "20:07"
        },
        {
          "order": 83,
          "poiIdx": 7092,
          "poiName": "Other Great Outdoors",
          "category": "Other Great Outdoors",
          "emoji": "📍",
          "lat": 40.71408826,
          "lon": -73.94940591,
          "weekday": "3",
          "hour": 20,
          "timeLabel": "20:27"
        },
        {
          "order": 84,
          "poiIdx": 7106,
          "poiName": "Smoke Shop",
          "category": "Smoke Shop",
          "emoji": "📍",
          "lat": 40.71595074,
          "lon": -73.94959534,
          "weekday": "3",
          "hour": 20,
          "timeLabel": "20:29"
        },
        {
          "order": 85,
          "poiIdx": 3407,
          "poiName": "Pizza Place",
          "category": "Pizza Place",
          "emoji": "📍",
          "lat": 40.71416031,
          "lon": -73.94938295,
          "weekday": "3",
          "hour": 22,
          "timeLabel": "22:03"
        },
        {
          "order": 86,
          "poiIdx": 7106,
          "poiName": "Smoke Shop",
          "category": "Smoke Shop",
          "emoji": "📍",
          "lat": 40.71595074,
          "lon": -73.94959534,
          "weekday": "3",
          "hour": 22,
          "timeLabel": "22:30"
        },
        {
          "order": 87,
          "poiIdx": 6437,
          "poiName": "Neighborhood",
          "category": "Neighborhood",
          "emoji": "📍",
          "lat": 40.6501689,
          "lon": -73.94957542,
          "weekday": "4",
          "hour": 2,
          "timeLabel": "02:04"
        },
        {
          "order": 88,
          "poiIdx": 7092,
          "poiName": "Other Great Outdoors",
          "category": "Other Great Outdoors",
          "emoji": "📍",
          "lat": 40.71408826,
          "lon": -73.94940591,
          "weekday": "4",
          "hour": 2,
          "timeLabel": "02:05"
        },
        {
          "order": 89,
          "poiIdx": 8197,
          "poiName": "Bus Station",
          "category": "Bus Station",
          "emoji": "🚇",
          "lat": 40.70402767,
          "lon": -73.94822344,
          "weekday": "4",
          "hour": 2,
          "timeLabel": "02:33"
        },
        {
          "order": 90,
          "poiIdx": 7038,
          "poiName": "Home (private)",
          "category": "Home (private)",
          "emoji": "🏠",
          "lat": 40.69321218,
          "lon": -73.93010371,
          "weekday": "4",
          "hour": 11,
          "timeLabel": "11:58"
        },
        {
          "order": 91,
          "poiIdx": 6952,
          "poiName": "Home (private)",
          "category": "Home (private)",
          "emoji": "🏠",
          "lat": 40.69321218,
          "lon": -73.93010371,
          "weekday": "4",
          "hour": 11,
          "timeLabel": "11:58"
        },
        {
          "order": 92,
          "poiIdx": 8066,
          "poiName": "Home (private)",
          "category": "Home (private)",
          "emoji": "🏠",
          "lat": 40.69321218,
          "lon": -73.93010371,
          "weekday": "4",
          "hour": 12,
          "timeLabel": "12:18"
        },
        {
          "order": 93,
          "poiIdx": 6960,
          "poiName": "General Travel",
          "category": "General Travel",
          "emoji": "📍",
          "lat": 40.688968,
          "lon": -73.92908473,
          "weekday": "4",
          "hour": 12,
          "timeLabel": "12:18"
        },
        {
          "order": 94,
          "poiIdx": 3354,
          "poiName": "Subway",
          "category": "Subway",
          "emoji": "🚇",
          "lat": 40.67933621,
          "lon": -73.93028498,
          "weekday": "4",
          "hour": 12,
          "timeLabel": "12:20"
        },
        {
          "order": 95,
          "poiIdx": 3087,
          "poiName": "Subway",
          "category": "Subway",
          "emoji": "🚇",
          "lat": 40.7255768,
          "lon": -74.004252,
          "weekday": "4",
          "hour": 19,
          "timeLabel": "19:51"
        },
        {
          "order": 96,
          "poiIdx": 8066,
          "poiName": "Home (private)",
          "category": "Home (private)",
          "emoji": "🏠",
          "lat": 40.69321218,
          "lon": -73.93010371,
          "weekday": "4",
          "hour": 20,
          "timeLabel": "20:51"
        },
        {
          "order": 97,
          "poiIdx": 7038,
          "poiName": "Home (private)",
          "category": "Home (private)",
          "emoji": "🏠",
          "lat": 40.69321218,
          "lon": -73.93010371,
          "weekday": "4",
          "hour": 20,
          "timeLabel": "20:51"
        },
        {
          "order": 98,
          "poiIdx": 8066,
          "poiName": "Home (private)",
          "category": "Home (private)",
          "emoji": "🏠",
          "lat": 40.69321218,
          "lon": -73.93010371,
          "weekday": "4",
          "hour": 20,
          "timeLabel": "20:56"
        },
        {
          "order": 99,
          "poiIdx": 8335,
          "poiName": "General Travel",
          "category": "General Travel",
          "emoji": "📍",
          "lat": 40.70408638,
          "lon": -73.94807993,
          "weekday": "4",
          "hour": 21,
          "timeLabel": "21:21"
        },
        {
          "order": 100,
          "poiIdx": 7092,
          "poiName": "Other Great Outdoors",
          "category": "Other Great Outdoors",
          "emoji": "📍",
          "lat": 40.71408826,
          "lon": -73.94940591,
          "weekday": "4",
          "hour": 21,
          "timeLabel": "21:28"
        },
        {
          "order": 101,
          "poiIdx": 6437,
          "poiName": "Neighborhood",
          "category": "Neighborhood",
          "emoji": "📍",
          "lat": 40.6501689,
          "lon": -73.94957542,
          "weekday": "4",
          "hour": 21,
          "timeLabel": "21:30"
        },
        {
          "order": 102,
          "poiIdx": 7106,
          "poiName": "Smoke Shop",
          "category": "Smoke Shop",
          "emoji": "📍",
          "lat": 40.71595074,
          "lon": -73.94959534,
          "weekday": "4",
          "hour": 21,
          "timeLabel": "21:32"
        },
        {
          "order": 103,
          "poiIdx": 7038,
          "poiName": "Home (private)",
          "category": "Home (private)",
          "emoji": "🏠",
          "lat": 40.69321218,
          "lon": -73.93010371,
          "weekday": "5",
          "hour": 13,
          "timeLabel": "13:48"
        },
        {
          "order": 104,
          "poiIdx": 8066,
          "poiName": "Home (private)",
          "category": "Home (private)",
          "emoji": "🏠",
          "lat": 40.69321218,
          "lon": -73.93010371,
          "weekday": "5",
          "hour": 14,
          "timeLabel": "14:52"
        },
        {
          "order": 105,
          "poiIdx": 6960,
          "poiName": "General Travel",
          "category": "General Travel",
          "emoji": "📍",
          "lat": 40.688968,
          "lon": -73.92908473,
          "weekday": "5",
          "hour": 16,
          "timeLabel": "16:00"
        },
        {
          "order": 106,
          "poiIdx": 7027,
          "poiName": "Deli / Bodega",
          "category": "Deli / Bodega",
          "emoji": "📍",
          "lat": 40.70427318,
          "lon": -73.94809715,
          "weekday": "5",
          "hour": 16,
          "timeLabel": "16:37"
        },
        {
          "order": 107,
          "poiIdx": 8197,
          "poiName": "Bus Station",
          "category": "Bus Station",
          "emoji": "🚇",
          "lat": 40.70402767,
          "lon": -73.94822344,
          "weekday": "5",
          "hour": 16,
          "timeLabel": "16:41"
        },
        {
          "order": 108,
          "poiIdx": 7092,
          "poiName": "Other Great Outdoors",
          "category": "Other Great Outdoors",
          "emoji": "📍",
          "lat": 40.71408826,
          "lon": -73.94940591,
          "weekday": "5",
          "hour": 16,
          "timeLabel": "16:43"
        },
        {
          "order": 109,
          "poiIdx": 6437,
          "poiName": "Neighborhood",
          "category": "Neighborhood",
          "emoji": "📍",
          "lat": 40.6501689,
          "lon": -73.94957542,
          "weekday": "5",
          "hour": 16,
          "timeLabel": "16:46"
        },
        {
          "order": 110,
          "poiIdx": 7106,
          "poiName": "Smoke Shop",
          "category": "Smoke Shop",
          "emoji": "📍",
          "lat": 40.71595074,
          "lon": -73.94959534,
          "weekday": "5",
          "hour": 16,
          "timeLabel": "16:47"
        },
        {
          "order": 111,
          "poiIdx": 7038,
          "poiName": "Home (private)",
          "category": "Home (private)",
          "emoji": "🏠",
          "lat": 40.69321218,
          "lon": -73.93010371,
          "weekday": "6",
          "hour": 15,
          "timeLabel": "15:36"
        },
        {
          "order": 112,
          "poiIdx": 6952,
          "poiName": "Home (private)",
          "category": "Home (private)",
          "emoji": "🏠",
          "lat": 40.69321218,
          "lon": -73.93010371,
          "weekday": "6",
          "hour": 15,
          "timeLabel": "15:37"
        },
        {
          "order": 113,
          "poiIdx": 8066,
          "poiName": "Home (private)",
          "category": "Home (private)",
          "emoji": "🏠",
          "lat": 40.69321218,
          "lon": -73.93010371,
          "weekday": "6",
          "hour": 15,
          "timeLabel": "15:53"
        },
        {
          "order": 114,
          "poiIdx": 4195,
          "poiName": "Food & Drink Shop",
          "category": "Food & Drink Shop",
          "emoji": "📍",
          "lat": 40.690652,
          "lon": -73.92427,
          "weekday": "6",
          "hour": 15,
          "timeLabel": "15:54"
        },
        {
          "order": 115,
          "poiIdx": 8335,
          "poiName": "General Travel",
          "category": "General Travel",
          "emoji": "📍",
          "lat": 40.70408638,
          "lon": -73.94807993,
          "weekday": "6",
          "hour": 16,
          "timeLabel": "16:16"
        },
        {
          "order": 116,
          "poiIdx": 7092,
          "poiName": "Other Great Outdoors",
          "category": "Other Great Outdoors",
          "emoji": "📍",
          "lat": 40.71408826,
          "lon": -73.94940591,
          "weekday": "6",
          "hour": 16,
          "timeLabel": "16:21"
        },
        {
          "order": 117,
          "poiIdx": 531,
          "poiName": "Bar",
          "category": "Bar",
          "emoji": "🍸",
          "lat": 40.71365005,
          "lon": -73.94946331,
          "weekday": "6",
          "hour": 16,
          "timeLabel": "16:23"
        },
        {
          "order": 118,
          "poiIdx": 7106,
          "poiName": "Smoke Shop",
          "category": "Smoke Shop",
          "emoji": "📍",
          "lat": 40.71595074,
          "lon": -73.94959534,
          "weekday": "6",
          "hour": 16,
          "timeLabel": "16:26"
        },
        {
          "order": 119,
          "poiIdx": 7038,
          "poiName": "Home (private)",
          "category": "Home (private)",
          "emoji": "🏠",
          "lat": 40.69321218,
          "lon": -73.93010371,
          "weekday": "0",
          "hour": 11,
          "timeLabel": "11:58"
        },
        {
          "order": 120,
          "poiIdx": 6960,
          "poiName": "General Travel",
          "category": "General Travel",
          "emoji": "📍",
          "lat": 40.688968,
          "lon": -73.92908473,
          "weekday": "0",
          "hour": 12,
          "timeLabel": "12:12"
        },
        {
          "order": 121,
          "poiIdx": 3354,
          "poiName": "Subway",
          "category": "Subway",
          "emoji": "🚇",
          "lat": 40.67933621,
          "lon": -73.93028498,
          "weekday": "0",
          "hour": 12,
          "timeLabel": "12:54"
        },
        {
          "order": 122,
          "poiIdx": 3087,
          "poiName": "Subway",
          "category": "Subway",
          "emoji": "🚇",
          "lat": 40.7255768,
          "lon": -74.004252,
          "weekday": "0",
          "hour": 13,
          "timeLabel": "13:27"
        },
        {
          "order": 123,
          "poiIdx": 2590,
          "poiName": "Park",
          "category": "Park",
          "emoji": "🌳",
          "lat": 40.72678506,
          "lon": -74.00346747,
          "weekday": "0",
          "hour": 13,
          "timeLabel": "13:28"
        },
        {
          "order": 124,
          "poiIdx": 1222,
          "poiName": "General Entertainment",
          "category": "General Entertainment",
          "emoji": "📍",
          "lat": 40.72692706,
          "lon": -74.00549046,
          "weekday": "0",
          "hour": 14,
          "timeLabel": "14:43"
        },
        {
          "order": 125,
          "poiIdx": 7038,
          "poiName": "Home (private)",
          "category": "Home (private)",
          "emoji": "🏠",
          "lat": 40.69321218,
          "lon": -73.93010371,
          "weekday": "1",
          "hour": 12,
          "timeLabel": "12:15"
        },
        {
          "order": 126,
          "poiIdx": 8066,
          "poiName": "Home (private)",
          "category": "Home (private)",
          "emoji": "🏠",
          "lat": 40.69321218,
          "lon": -73.93010371,
          "weekday": "1",
          "hour": 12,
          "timeLabel": "12:28"
        },
        {
          "order": 127,
          "poiIdx": 6960,
          "poiName": "General Travel",
          "category": "General Travel",
          "emoji": "📍",
          "lat": 40.688968,
          "lon": -73.92908473,
          "weekday": "1",
          "hour": 12,
          "timeLabel": "12:29"
        },
        {
          "order": 128,
          "poiIdx": 3087,
          "poiName": "Subway",
          "category": "Subway",
          "emoji": "🚇",
          "lat": 40.7255768,
          "lon": -74.004252,
          "weekday": "1",
          "hour": 13,
          "timeLabel": "13:18"
        },
        {
          "order": 129,
          "poiIdx": 2590,
          "poiName": "Park",
          "category": "Park",
          "emoji": "🌳",
          "lat": 40.72678506,
          "lon": -74.00346747,
          "weekday": "1",
          "hour": 13,
          "timeLabel": "13:18"
        },
        {
          "order": 130,
          "poiIdx": 3950,
          "poiName": "Paper / Office Supplies Store",
          "category": "Paper / Office Supplies Store",
          "emoji": "💼",
          "lat": 40.72702213,
          "lon": -74.00527814,
          "weekday": "1",
          "hour": 13,
          "timeLabel": "13:21"
        },
        {
          "order": 131,
          "poiIdx": 3087,
          "poiName": "Subway",
          "category": "Subway",
          "emoji": "🚇",
          "lat": 40.7255768,
          "lon": -74.004252,
          "weekday": "1",
          "hour": 19,
          "timeLabel": "19:51"
        },
        {
          "order": 132,
          "poiIdx": 7092,
          "poiName": "Other Great Outdoors",
          "category": "Other Great Outdoors",
          "emoji": "📍",
          "lat": 40.71408826,
          "lon": -73.94940591,
          "weekday": "1",
          "hour": 20,
          "timeLabel": "20:40"
        },
        {
          "order": 133,
          "poiIdx": 6437,
          "poiName": "Neighborhood",
          "category": "Neighborhood",
          "emoji": "📍",
          "lat": 40.6501689,
          "lon": -73.94957542,
          "weekday": "1",
          "hour": 20,
          "timeLabel": "20:41"
        },
        {
          "order": 134,
          "poiIdx": 7106,
          "poiName": "Smoke Shop",
          "category": "Smoke Shop",
          "emoji": "📍",
          "lat": 40.71595074,
          "lon": -73.94959534,
          "weekday": "1",
          "hour": 20,
          "timeLabel": "20:41"
        },
        {
          "order": 135,
          "poiIdx": 7038,
          "poiName": "Home (private)",
          "category": "Home (private)",
          "emoji": "🏠",
          "lat": 40.69321218,
          "lon": -73.93010371,
          "weekday": "2",
          "hour": 14,
          "timeLabel": "14:30"
        },
        {
          "order": 136,
          "poiIdx": 6952,
          "poiName": "Home (private)",
          "category": "Home (private)",
          "emoji": "🏠",
          "lat": 40.69321218,
          "lon": -73.93010371,
          "weekday": "2",
          "hour": 14,
          "timeLabel": "14:31"
        },
        {
          "order": 137,
          "poiIdx": 8066,
          "poiName": "Home (private)",
          "category": "Home (private)",
          "emoji": "🏠",
          "lat": 40.69321218,
          "lon": -73.93010371,
          "weekday": "2",
          "hour": 14,
          "timeLabel": "14:41"
        },
        {
          "order": 138,
          "poiIdx": 6960,
          "poiName": "General Travel",
          "category": "General Travel",
          "emoji": "📍",
          "lat": 40.688968,
          "lon": -73.92908473,
          "weekday": "2",
          "hour": 14,
          "timeLabel": "14:42"
        },
        {
          "order": 139,
          "poiIdx": 3165,
          "poiName": "Drugstore / Pharmacy",
          "category": "Drugstore / Pharmacy",
          "emoji": "📍",
          "lat": 40.70072679,
          "lon": -73.94124899,
          "weekday": "2",
          "hour": 15,
          "timeLabel": "15:10"
        },
        {
          "order": 140,
          "poiIdx": 8335,
          "poiName": "General Travel",
          "category": "General Travel",
          "emoji": "📍",
          "lat": 40.70408638,
          "lon": -73.94807993,
          "weekday": "2",
          "hour": 15,
          "timeLabel": "15:34"
        },
        {
          "order": 141,
          "poiIdx": 7092,
          "poiName": "Other Great Outdoors",
          "category": "Other Great Outdoors",
          "emoji": "📍",
          "lat": 40.71408826,
          "lon": -73.94940591,
          "weekday": "2",
          "hour": 15,
          "timeLabel": "15:46"
        },
        {
          "order": 142,
          "poiIdx": 6437,
          "poiName": "Neighborhood",
          "category": "Neighborhood",
          "emoji": "📍",
          "lat": 40.6501689,
          "lon": -73.94957542,
          "weekday": "2",
          "hour": 15,
          "timeLabel": "15:50"
        },
        {
          "order": 143,
          "poiIdx": 4875,
          "poiName": "Deli / Bodega",
          "category": "Deli / Bodega",
          "emoji": "📍",
          "lat": 40.71606901,
          "lon": -73.94973884,
          "weekday": "2",
          "hour": 15,
          "timeLabel": "15:53"
        },
        {
          "order": 144,
          "poiIdx": 7106,
          "poiName": "Smoke Shop",
          "category": "Smoke Shop",
          "emoji": "📍",
          "lat": 40.71595074,
          "lon": -73.94959534,
          "weekday": "2",
          "hour": 15,
          "timeLabel": "15:54"
        },
        {
          "order": 145,
          "poiIdx": 837,
          "poiName": "Bar",
          "category": "Bar",
          "emoji": "🍸",
          "lat": 40.764366,
          "lon": -73.979733,
          "weekday": "2",
          "hour": 18,
          "timeLabel": "18:28"
        },
        {
          "order": 146,
          "poiIdx": 7106,
          "poiName": "Smoke Shop",
          "category": "Smoke Shop",
          "emoji": "📍",
          "lat": 40.71595074,
          "lon": -73.94959534,
          "weekday": "2",
          "hour": 23,
          "timeLabel": "23:43"
        },
        {
          "order": 147,
          "poiIdx": 6437,
          "poiName": "Neighborhood",
          "category": "Neighborhood",
          "emoji": "📍",
          "lat": 40.6501689,
          "lon": -73.94957542,
          "weekday": "3",
          "hour": 3,
          "timeLabel": "03:18"
        },
        {
          "order": 148,
          "poiIdx": 7092,
          "poiName": "Other Great Outdoors",
          "category": "Other Great Outdoors",
          "emoji": "📍",
          "lat": 40.71408826,
          "lon": -73.94940591,
          "weekday": "3",
          "hour": 3,
          "timeLabel": "03:18"
        },
        {
          "order": 149,
          "poiIdx": 8197,
          "poiName": "Bus Station",
          "category": "Bus Station",
          "emoji": "🚇",
          "lat": 40.70402767,
          "lon": -73.94822344,
          "weekday": "3",
          "hour": 3,
          "timeLabel": "03:34"
        },
        {
          "order": 150,
          "poiIdx": 7038,
          "poiName": "Home (private)",
          "category": "Home (private)",
          "emoji": "🏠",
          "lat": 40.69321218,
          "lon": -73.93010371,
          "weekday": "3",
          "hour": 14,
          "timeLabel": "14:07"
        },
        {
          "order": 151,
          "poiIdx": 6952,
          "poiName": "Home (private)",
          "category": "Home (private)",
          "emoji": "🏠",
          "lat": 40.69321218,
          "lon": -73.93010371,
          "weekday": "3",
          "hour": 14,
          "timeLabel": "14:08"
        },
        {
          "order": 152,
          "poiIdx": 8066,
          "poiName": "Home (private)",
          "category": "Home (private)",
          "emoji": "🏠",
          "lat": 40.69321218,
          "lon": -73.93010371,
          "weekday": "3",
          "hour": 15,
          "timeLabel": "15:07"
        },
        {
          "order": 153,
          "poiIdx": 6960,
          "poiName": "General Travel",
          "category": "General Travel",
          "emoji": "📍",
          "lat": 40.688968,
          "lon": -73.92908473,
          "weekday": "3",
          "hour": 15,
          "timeLabel": "15:08"
        },
        {
          "order": 154,
          "poiIdx": 7449,
          "poiName": "Bus Station",
          "category": "Bus Station",
          "emoji": "🚇",
          "lat": 40.67528094,
          "lon": -73.93038787,
          "weekday": "3",
          "hour": 15,
          "timeLabel": "15:30"
        },
        {
          "order": 155,
          "poiIdx": 7141,
          "poiName": "Food & Drink Shop",
          "category": "Food & Drink Shop",
          "emoji": "📍",
          "lat": 40.66879059,
          "lon": -73.91670154,
          "weekday": "3",
          "hour": 16,
          "timeLabel": "16:14"
        },
        {
          "order": 156,
          "poiIdx": 8335,
          "poiName": "General Travel",
          "category": "General Travel",
          "emoji": "📍",
          "lat": 40.70408638,
          "lon": -73.94807993,
          "weekday": "3",
          "hour": 17,
          "timeLabel": "17:07"
        },
        {
          "order": 157,
          "poiIdx": 7092,
          "poiName": "Other Great Outdoors",
          "category": "Other Great Outdoors",
          "emoji": "📍",
          "lat": 40.71408826,
          "lon": -73.94940591,
          "weekday": "3",
          "hour": 17,
          "timeLabel": "17:13"
        },
        {
          "order": 158,
          "poiIdx": 6437,
          "poiName": "Neighborhood",
          "category": "Neighborhood",
          "emoji": "📍",
          "lat": 40.6501689,
          "lon": -73.94957542,
          "weekday": "3",
          "hour": 17,
          "timeLabel": "17:15"
        },
        {
          "order": 159,
          "poiIdx": 7106,
          "poiName": "Smoke Shop",
          "category": "Smoke Shop",
          "emoji": "📍",
          "lat": 40.71595074,
          "lon": -73.94959534,
          "weekday": "3",
          "hour": 17,
          "timeLabel": "17:17"
        },
        {
          "order": 160,
          "poiIdx": 8423,
          "poiName": "Deli / Bodega",
          "category": "Deli / Bodega",
          "emoji": "📍",
          "lat": 40.71559177,
          "lon": -73.94962404,
          "weekday": "3",
          "hour": 17,
          "timeLabel": "17:39"
        },
        {
          "order": 161,
          "poiIdx": 6437,
          "poiName": "Neighborhood",
          "category": "Neighborhood",
          "emoji": "📍",
          "lat": 40.6501689,
          "lon": -73.94957542,
          "weekday": "4",
          "hour": 1,
          "timeLabel": "01:28"
        },
        {
          "order": 162,
          "poiIdx": 7092,
          "poiName": "Other Great Outdoors",
          "category": "Other Great Outdoors",
          "emoji": "📍",
          "lat": 40.71408826,
          "lon": -73.94940591,
          "weekday": "4",
          "hour": 1,
          "timeLabel": "01:29"
        },
        {
          "order": 163,
          "poiIdx": 8197,
          "poiName": "Bus Station",
          "category": "Bus Station",
          "emoji": "🚇",
          "lat": 40.70402767,
          "lon": -73.94822344,
          "weekday": "4",
          "hour": 2,
          "timeLabel": "02:03"
        },
        {
          "order": 164,
          "poiIdx": 6952,
          "poiName": "Home (private)",
          "category": "Home (private)",
          "emoji": "🏠",
          "lat": 40.69321218,
          "lon": -73.93010371,
          "weekday": "4",
          "hour": 15,
          "timeLabel": "15:06"
        },
        {
          "order": 165,
          "poiIdx": 8066,
          "poiName": "Home (private)",
          "category": "Home (private)",
          "emoji": "🏠",
          "lat": 40.69321218,
          "lon": -73.93010371,
          "weekday": "4",
          "hour": 15,
          "timeLabel": "15:30"
        },
        {
          "order": 166,
          "poiIdx": 4154,
          "poiName": "Drugstore / Pharmacy",
          "category": "Drugstore / Pharmacy",
          "emoji": "📍",
          "lat": 40.68927818,
          "lon": -73.92219543,
          "weekday": "4",
          "hour": 15,
          "timeLabel": "15:45"
        },
        {
          "order": 167,
          "poiIdx": 4195,
          "poiName": "Food & Drink Shop",
          "category": "Food & Drink Shop",
          "emoji": "📍",
          "lat": 40.690652,
          "lon": -73.92427,
          "weekday": "4",
          "hour": 15,
          "timeLabel": "15:47"
        },
        {
          "order": 168,
          "poiIdx": 3886,
          "poiName": "Subway",
          "category": "Subway",
          "emoji": "🚇",
          "lat": 40.6896915,
          "lon": -73.9229937,
          "weekday": "4",
          "hour": 15,
          "timeLabel": "15:54"
        },
        {
          "order": 169,
          "poiIdx": 8335,
          "poiName": "General Travel",
          "category": "General Travel",
          "emoji": "📍",
          "lat": 40.70408638,
          "lon": -73.94807993,
          "weekday": "4",
          "hour": 16,
          "timeLabel": "16:15"
        },
        {
          "order": 170,
          "poiIdx": 7092,
          "poiName": "Other Great Outdoors",
          "category": "Other Great Outdoors",
          "emoji": "📍",
          "lat": 40.71408826,
          "lon": -73.94940591,
          "weekday": "4",
          "hour": 16,
          "timeLabel": "16:33"
        },
        {
          "order": 171,
          "poiIdx": 6437,
          "poiName": "Neighborhood",
          "category": "Neighborhood",
          "emoji": "📍",
          "lat": 40.6501689,
          "lon": -73.94957542,
          "weekday": "4",
          "hour": 16,
          "timeLabel": "16:34"
        },
        {
          "order": 172,
          "poiIdx": 4875,
          "poiName": "Deli / Bodega",
          "category": "Deli / Bodega",
          "emoji": "📍",
          "lat": 40.71606901,
          "lon": -73.94973884,
          "weekday": "4",
          "hour": 17,
          "timeLabel": "17:38"
        },
        {
          "order": 173,
          "poiIdx": 7106,
          "poiName": "Smoke Shop",
          "category": "Smoke Shop",
          "emoji": "📍",
          "lat": 40.71595074,
          "lon": -73.94959534,
          "weekday": "5",
          "hour": 13,
          "timeLabel": "13:44"
        },
        {
          "order": 174,
          "poiIdx": 4875,
          "poiName": "Deli / Bodega",
          "category": "Deli / Bodega",
          "emoji": "📍",
          "lat": 40.71606901,
          "lon": -73.94973884,
          "weekday": "5",
          "hour": 21,
          "timeLabel": "21:52"
        },
        {
          "order": 175,
          "poiIdx": 7106,
          "poiName": "Smoke Shop",
          "category": "Smoke Shop",
          "emoji": "📍",
          "lat": 40.71595074,
          "lon": -73.94959534,
          "weekday": "5",
          "hour": 21,
          "timeLabel": "21:53"
        },
        {
          "order": 176,
          "poiIdx": 6437,
          "poiName": "Neighborhood",
          "category": "Neighborhood",
          "emoji": "📍",
          "lat": 40.6501689,
          "lon": -73.94957542,
          "weekday": "6",
          "hour": 1,
          "timeLabel": "01:37"
        },
        {
          "order": 177,
          "poiIdx": 7092,
          "poiName": "Other Great Outdoors",
          "category": "Other Great Outdoors",
          "emoji": "📍",
          "lat": 40.71408826,
          "lon": -73.94940591,
          "weekday": "6",
          "hour": 1,
          "timeLabel": "01:37"
        },
        {
          "order": 178,
          "poiIdx": 8197,
          "poiName": "Bus Station",
          "category": "Bus Station",
          "emoji": "🚇",
          "lat": 40.70402767,
          "lon": -73.94822344,
          "weekday": "6",
          "hour": 2,
          "timeLabel": "02:04"
        },
        {
          "order": 179,
          "poiIdx": 6952,
          "poiName": "Home (private)",
          "category": "Home (private)",
          "emoji": "🏠",
          "lat": 40.69321218,
          "lon": -73.93010371,
          "weekday": "6",
          "hour": 17,
          "timeLabel": "17:14"
        },
        {
          "order": 180,
          "poiIdx": 8066,
          "poiName": "Home (private)",
          "category": "Home (private)",
          "emoji": "🏠",
          "lat": 40.69321218,
          "lon": -73.93010371,
          "weekday": "6",
          "hour": 18,
          "timeLabel": "18:10"
        },
        {
          "order": 181,
          "poiIdx": 3886,
          "poiName": "Subway",
          "category": "Subway",
          "emoji": "🚇",
          "lat": 40.6896915,
          "lon": -73.9229937,
          "weekday": "6",
          "hour": 18,
          "timeLabel": "18:23"
        },
        {
          "order": 182,
          "poiIdx": 8335,
          "poiName": "General Travel",
          "category": "General Travel",
          "emoji": "📍",
          "lat": 40.70408638,
          "lon": -73.94807993,
          "weekday": "6",
          "hour": 18,
          "timeLabel": "18:37"
        },
        {
          "order": 183,
          "poiIdx": 7092,
          "poiName": "Other Great Outdoors",
          "category": "Other Great Outdoors",
          "emoji": "📍",
          "lat": 40.71408826,
          "lon": -73.94940591,
          "weekday": "6",
          "hour": 18,
          "timeLabel": "18:43"
        },
        {
          "order": 184,
          "poiIdx": 6437,
          "poiName": "Neighborhood",
          "category": "Neighborhood",
          "emoji": "📍",
          "lat": 40.6501689,
          "lon": -73.94957542,
          "weekday": "6",
          "hour": 18,
          "timeLabel": "18:44"
        },
        {
          "order": 185,
          "poiIdx": 7106,
          "poiName": "Smoke Shop",
          "category": "Smoke Shop",
          "emoji": "📍",
          "lat": 40.71595074,
          "lon": -73.94959534,
          "weekday": "6",
          "hour": 18,
          "timeLabel": "18:49"
        },
        {
          "order": 186,
          "poiIdx": 4875,
          "poiName": "Deli / Bodega",
          "category": "Deli / Bodega",
          "emoji": "📍",
          "lat": 40.71606901,
          "lon": -73.94973884,
          "weekday": "6",
          "hour": 19,
          "timeLabel": "19:26"
        },
        {
          "order": 187,
          "poiIdx": 9332,
          "poiName": "Other Great Outdoors",
          "category": "Other Great Outdoors",
          "emoji": "📍",
          "lat": 40.81780414,
          "lon": -73.85728598,
          "weekday": "6",
          "hour": 19,
          "timeLabel": "19:30"
        },
        {
          "order": 188,
          "poiIdx": 6437,
          "poiName": "Neighborhood",
          "category": "Neighborhood",
          "emoji": "📍",
          "lat": 40.6501689,
          "lon": -73.94957542,
          "weekday": "0",
          "hour": 1,
          "timeLabel": "01:46"
        },
        {
          "order": 189,
          "poiIdx": 7092,
          "poiName": "Other Great Outdoors",
          "category": "Other Great Outdoors",
          "emoji": "📍",
          "lat": 40.71408826,
          "lon": -73.94940591,
          "weekday": "0",
          "hour": 1,
          "timeLabel": "01:47"
        },
        {
          "order": 190,
          "poiIdx": 8197,
          "poiName": "Bus Station",
          "category": "Bus Station",
          "emoji": "🚇",
          "lat": 40.70402767,
          "lon": -73.94822344,
          "weekday": "0",
          "hour": 2,
          "timeLabel": "02:02"
        },
        {
          "order": 191,
          "poiIdx": 7038,
          "poiName": "Home (private)",
          "category": "Home (private)",
          "emoji": "🏠",
          "lat": 40.69321218,
          "lon": -73.93010371,
          "weekday": "0",
          "hour": 11,
          "timeLabel": "11:25"
        },
        {
          "order": 192,
          "poiIdx": 6952,
          "poiName": "Home (private)",
          "category": "Home (private)",
          "emoji": "🏠",
          "lat": 40.69321218,
          "lon": -73.93010371,
          "weekday": "0",
          "hour": 11,
          "timeLabel": "11:26"
        },
        {
          "order": 193,
          "poiIdx": 8066,
          "poiName": "Home (private)",
          "category": "Home (private)",
          "emoji": "🏠",
          "lat": 40.69321218,
          "lon": -73.93010371,
          "weekday": "0",
          "hour": 11,
          "timeLabel": "11:54"
        },
        {
          "order": 194,
          "poiIdx": 3354,
          "poiName": "Subway",
          "category": "Subway",
          "emoji": "🚇",
          "lat": 40.67933621,
          "lon": -73.93028498,
          "weekday": "0",
          "hour": 11,
          "timeLabel": "11:56"
        },
        {
          "order": 195,
          "poiIdx": 4132,
          "poiName": "Subway",
          "category": "Subway",
          "emoji": "🚇",
          "lat": 40.80057233,
          "lon": -73.95817995,
          "weekday": "0",
          "hour": 12,
          "timeLabel": "12:54"
        },
        {
          "order": 196,
          "poiIdx": 3060,
          "poiName": "Subway",
          "category": "Subway",
          "emoji": "🚇",
          "lat": 40.81112146,
          "lon": -73.95236626,
          "weekday": "0",
          "hour": 13,
          "timeLabel": "13:23"
        },
        {
          "order": 197,
          "poiIdx": 6960,
          "poiName": "General Travel",
          "category": "General Travel",
          "emoji": "📍",
          "lat": 40.688968,
          "lon": -73.92908473,
          "weekday": "0",
          "hour": 17,
          "timeLabel": "17:25"
        },
        {
          "order": 198,
          "poiIdx": 3354,
          "poiName": "Subway",
          "category": "Subway",
          "emoji": "🚇",
          "lat": 40.67933621,
          "lon": -73.93028498,
          "weekday": "0",
          "hour": 17,
          "timeLabel": "17:26"
        },
        {
          "order": 199,
          "poiIdx": 3082,
          "poiName": "Train Station",
          "category": "Train Station",
          "emoji": "🚇",
          "lat": 40.71267093,
          "lon": -74.01193142,
          "weekday": "0",
          "hour": 17,
          "timeLabel": "17:56"
        },
        {
          "order": 200,
          "poiIdx": 1557,
          "poiName": "Stadium",
          "category": "Stadium",
          "emoji": "📍",
          "lat": 40.73308,
          "lon": -74.17082548,
          "weekday": "0",
          "hour": 20,
          "timeLabel": "20:21"
        },
        {
          "order": 201,
          "poiIdx": 3088,
          "poiName": "Train Station",
          "category": "Train Station",
          "emoji": "🚇",
          "lat": 40.73412061,
          "lon": -74.16445255,
          "weekday": "1",
          "hour": 0,
          "timeLabel": "00:07"
        },
        {
          "order": 202,
          "poiIdx": 7092,
          "poiName": "Other Great Outdoors",
          "category": "Other Great Outdoors",
          "emoji": "📍",
          "lat": 40.71408826,
          "lon": -73.94940591,
          "weekday": "1",
          "hour": 1,
          "timeLabel": "01:32"
        },
        {
          "order": 203,
          "poiIdx": 6437,
          "poiName": "Neighborhood",
          "category": "Neighborhood",
          "emoji": "📍",
          "lat": 40.6501689,
          "lon": -73.94957542,
          "weekday": "1",
          "hour": 1,
          "timeLabel": "01:32"
        },
        {
          "order": 204,
          "poiIdx": 7106,
          "poiName": "Smoke Shop",
          "category": "Smoke Shop",
          "emoji": "📍",
          "lat": 40.71595074,
          "lon": -73.94959534,
          "weekday": "1",
          "hour": 1,
          "timeLabel": "01:33"
        },
        {
          "order": 205,
          "poiIdx": 6437,
          "poiName": "Neighborhood",
          "category": "Neighborhood",
          "emoji": "📍",
          "lat": 40.6501689,
          "lon": -73.94957542,
          "weekday": "1",
          "hour": 3,
          "timeLabel": "03:09"
        },
        {
          "order": 206,
          "poiIdx": 8197,
          "poiName": "Bus Station",
          "category": "Bus Station",
          "emoji": "🚇",
          "lat": 40.70402767,
          "lon": -73.94822344,
          "weekday": "1",
          "hour": 3,
          "timeLabel": "03:34"
        },
        {
          "order": 207,
          "poiIdx": 7038,
          "poiName": "Home (private)",
          "category": "Home (private)",
          "emoji": "🏠",
          "lat": 40.69321218,
          "lon": -73.93010371,
          "weekday": "1",
          "hour": 12,
          "timeLabel": "12:15"
        },
        {
          "order": 208,
          "poiIdx": 8066,
          "poiName": "Home (private)",
          "category": "Home (private)",
          "emoji": "🏠",
          "lat": 40.69321218,
          "lon": -73.93010371,
          "weekday": "1",
          "hour": 12,
          "timeLabel": "12:29"
        },
        {
          "order": 209,
          "poiIdx": 6960,
          "poiName": "General Travel",
          "category": "General Travel",
          "emoji": "📍",
          "lat": 40.688968,
          "lon": -73.92908473,
          "weekday": "1",
          "hour": 12,
          "timeLabel": "12:31"
        },
        {
          "order": 210,
          "poiIdx": 3354,
          "poiName": "Subway",
          "category": "Subway",
          "emoji": "🚇",
          "lat": 40.67933621,
          "lon": -73.93028498,
          "weekday": "1",
          "hour": 12,
          "timeLabel": "12:33"
        },
        {
          "order": 211,
          "poiIdx": 3087,
          "poiName": "Subway",
          "category": "Subway",
          "emoji": "🚇",
          "lat": 40.7255768,
          "lon": -74.004252,
          "weekday": "1",
          "hour": 13,
          "timeLabel": "13:36"
        },
        {
          "order": 212,
          "poiIdx": 2590,
          "poiName": "Park",
          "category": "Park",
          "emoji": "🌳",
          "lat": 40.72678506,
          "lon": -74.00346747,
          "weekday": "1",
          "hour": 13,
          "timeLabel": "13:36"
        },
        {
          "order": 213,
          "poiIdx": 6952,
          "poiName": "Home (private)",
          "category": "Home (private)",
          "emoji": "🏠",
          "lat": 40.69321218,
          "lon": -73.93010371,
          "weekday": "2",
          "hour": 12,
          "timeLabel": "12:20"
        },
        {
          "order": 214,
          "poiIdx": 6960,
          "poiName": "General Travel",
          "category": "General Travel",
          "emoji": "📍",
          "lat": 40.688968,
          "lon": -73.92908473,
          "weekday": "2",
          "hour": 12,
          "timeLabel": "12:29"
        },
        {
          "order": 215,
          "poiIdx": 3354,
          "poiName": "Subway",
          "category": "Subway",
          "emoji": "🚇",
          "lat": 40.67933621,
          "lon": -73.93028498,
          "weekday": "2",
          "hour": 12,
          "timeLabel": "12:31"
        },
        {
          "order": 216,
          "poiIdx": 2590,
          "poiName": "Park",
          "category": "Park",
          "emoji": "🌳",
          "lat": 40.72678506,
          "lon": -74.00346747,
          "weekday": "2",
          "hour": 13,
          "timeLabel": "13:14"
        },
        {
          "order": 217,
          "poiIdx": 4766,
          "poiName": "Convenience Store",
          "category": "Convenience Store",
          "emoji": "📍",
          "lat": 40.727205,
          "lon": -74.003234,
          "weekday": "2",
          "hour": 13,
          "timeLabel": "13:16"
        },
        {
          "order": 218,
          "poiIdx": 3950,
          "poiName": "Paper / Office Supplies Store",
          "category": "Paper / Office Supplies Store",
          "emoji": "💼",
          "lat": 40.72702213,
          "lon": -74.00527814,
          "weekday": "2",
          "hour": 13,
          "timeLabel": "13:18"
        },
        {
          "order": 219,
          "poiIdx": 1222,
          "poiName": "General Entertainment",
          "category": "General Entertainment",
          "emoji": "📍",
          "lat": 40.72692706,
          "lon": -74.00549046,
          "weekday": "2",
          "hour": 13,
          "timeLabel": "13:38"
        },
        {
          "order": 220,
          "poiIdx": 3087,
          "poiName": "Subway",
          "category": "Subway",
          "emoji": "🚇",
          "lat": 40.7255768,
          "lon": -74.004252,
          "weekday": "2",
          "hour": 19,
          "timeLabel": "19:48"
        },
        {
          "order": 221,
          "poiIdx": 7092,
          "poiName": "Other Great Outdoors",
          "category": "Other Great Outdoors",
          "emoji": "📍",
          "lat": 40.71408826,
          "lon": -73.94940591,
          "weekday": "2",
          "hour": 20,
          "timeLabel": "20:11"
        },
        {
          "order": 222,
          "poiIdx": 6437,
          "poiName": "Neighborhood",
          "category": "Neighborhood",
          "emoji": "📍",
          "lat": 40.6501689,
          "lon": -73.94957542,
          "weekday": "2",
          "hour": 20,
          "timeLabel": "20:12"
        },
        {
          "order": 223,
          "poiIdx": 6437,
          "poiName": "Neighborhood",
          "category": "Neighborhood",
          "emoji": "📍",
          "lat": 40.6501689,
          "lon": -73.94957542,
          "weekday": "2",
          "hour": 23,
          "timeLabel": "23:45"
        },
        {
          "order": 224,
          "poiIdx": 7092,
          "poiName": "Other Great Outdoors",
          "category": "Other Great Outdoors",
          "emoji": "📍",
          "lat": 40.71408826,
          "lon": -73.94940591,
          "weekday": "2",
          "hour": 23,
          "timeLabel": "23:46"
        },
        {
          "order": 225,
          "poiIdx": 8197,
          "poiName": "Bus Station",
          "category": "Bus Station",
          "emoji": "🚇",
          "lat": 40.70402767,
          "lon": -73.94822344,
          "weekday": "3",
          "hour": 0,
          "timeLabel": "00:06"
        },
        {
          "order": 226,
          "poiIdx": 7038,
          "poiName": "Home (private)",
          "category": "Home (private)",
          "emoji": "🏠",
          "lat": 40.69321218,
          "lon": -73.93010371,
          "weekday": "3",
          "hour": 11,
          "timeLabel": "11:25"
        },
        {
          "order": 227,
          "poiIdx": 6952,
          "poiName": "Home (private)",
          "category": "Home (private)",
          "emoji": "🏠",
          "lat": 40.69321218,
          "lon": -73.93010371,
          "weekday": "3",
          "hour": 11,
          "timeLabel": "11:26"
        },
        {
          "order": 228,
          "poiIdx": 7038,
          "poiName": "Home (private)",
          "category": "Home (private)",
          "emoji": "🏠",
          "lat": 40.69321218,
          "lon": -73.93010371,
          "weekday": "4",
          "hour": 12,
          "timeLabel": "12:52"
        },
        {
          "order": 229,
          "poiIdx": 6952,
          "poiName": "Home (private)",
          "category": "Home (private)",
          "emoji": "🏠",
          "lat": 40.69321218,
          "lon": -73.93010371,
          "weekday": "4",
          "hour": 12,
          "timeLabel": "12:52"
        },
        {
          "order": 230,
          "poiIdx": 8066,
          "poiName": "Home (private)",
          "category": "Home (private)",
          "emoji": "🏠",
          "lat": 40.69321218,
          "lon": -73.93010371,
          "weekday": "4",
          "hour": 12,
          "timeLabel": "12:52"
        },
        {
          "order": 231,
          "poiIdx": 6960,
          "poiName": "General Travel",
          "category": "General Travel",
          "emoji": "📍",
          "lat": 40.688968,
          "lon": -73.92908473,
          "weekday": "4",
          "hour": 12,
          "timeLabel": "12:54"
        },
        {
          "order": 232,
          "poiIdx": 3354,
          "poiName": "Subway",
          "category": "Subway",
          "emoji": "🚇",
          "lat": 40.67933621,
          "lon": -73.93028498,
          "weekday": "4",
          "hour": 12,
          "timeLabel": "12:55"
        },
        {
          "order": 233,
          "poiIdx": 3087,
          "poiName": "Subway",
          "category": "Subway",
          "emoji": "🚇",
          "lat": 40.7255768,
          "lon": -74.004252,
          "weekday": "4",
          "hour": 13,
          "timeLabel": "13:26"
        },
        {
          "order": 234,
          "poiIdx": 2590,
          "poiName": "Park",
          "category": "Park",
          "emoji": "🌳",
          "lat": 40.72678506,
          "lon": -74.00346747,
          "weekday": "4",
          "hour": 13,
          "timeLabel": "13:27"
        },
        {
          "order": 235,
          "poiIdx": 2215,
          "poiName": "Sandwich Place",
          "category": "Sandwich Place",
          "emoji": "📍",
          "lat": 40.727297,
          "lon": -74.005485,
          "weekday": "4",
          "hour": 13,
          "timeLabel": "13:29"
        },
        {
          "order": 236,
          "poiIdx": 3950,
          "poiName": "Paper / Office Supplies Store",
          "category": "Paper / Office Supplies Store",
          "emoji": "💼",
          "lat": 40.72702213,
          "lon": -74.00527814,
          "weekday": "4",
          "hour": 13,
          "timeLabel": "13:38"
        },
        {
          "order": 237,
          "poiIdx": 1222,
          "poiName": "General Entertainment",
          "category": "General Entertainment",
          "emoji": "📍",
          "lat": 40.72692706,
          "lon": -74.00549046,
          "weekday": "4",
          "hour": 13,
          "timeLabel": "13:38"
        },
        {
          "order": 238,
          "poiIdx": 3087,
          "poiName": "Subway",
          "category": "Subway",
          "emoji": "🚇",
          "lat": 40.7255768,
          "lon": -74.004252,
          "weekday": "4",
          "hour": 19,
          "timeLabel": "19:53"
        },
        {
          "order": 239,
          "poiIdx": 7092,
          "poiName": "Other Great Outdoors",
          "category": "Other Great Outdoors",
          "emoji": "📍",
          "lat": 40.71408826,
          "lon": -73.94940591,
          "weekday": "4",
          "hour": 20,
          "timeLabel": "20:14"
        },
        {
          "order": 240,
          "poiIdx": 6437,
          "poiName": "Neighborhood",
          "category": "Neighborhood",
          "emoji": "📍",
          "lat": 40.6501689,
          "lon": -73.94957542,
          "weekday": "4",
          "hour": 20,
          "timeLabel": "20:15"
        },
        {
          "order": 241,
          "poiIdx": 7106,
          "poiName": "Smoke Shop",
          "category": "Smoke Shop",
          "emoji": "📍",
          "lat": 40.71595074,
          "lon": -73.94959534,
          "weekday": "4",
          "hour": 20,
          "timeLabel": "20:15"
        },
        {
          "order": 242,
          "poiIdx": 6437,
          "poiName": "Neighborhood",
          "category": "Neighborhood",
          "emoji": "📍",
          "lat": 40.6501689,
          "lon": -73.94957542,
          "weekday": "5",
          "hour": 5,
          "timeLabel": "05:41"
        },
        {
          "order": 243,
          "poiIdx": 7092,
          "poiName": "Other Great Outdoors",
          "category": "Other Great Outdoors",
          "emoji": "📍",
          "lat": 40.71408826,
          "lon": -73.94940591,
          "weekday": "5",
          "hour": 5,
          "timeLabel": "05:42"
        },
        {
          "order": 244,
          "poiIdx": 7038,
          "poiName": "Home (private)",
          "category": "Home (private)",
          "emoji": "🏠",
          "lat": 40.69321218,
          "lon": -73.93010371,
          "weekday": "5",
          "hour": 17,
          "timeLabel": "17:13"
        },
        {
          "order": 245,
          "poiIdx": 6952,
          "poiName": "Home (private)",
          "category": "Home (private)",
          "emoji": "🏠",
          "lat": 40.69321218,
          "lon": -73.93010371,
          "weekday": "5",
          "hour": 17,
          "timeLabel": "17:14"
        },
        {
          "order": 246,
          "poiIdx": 8066,
          "poiName": "Home (private)",
          "category": "Home (private)",
          "emoji": "🏠",
          "lat": 40.69321218,
          "lon": -73.93010371,
          "weekday": "5",
          "hour": 17,
          "timeLabel": "17:21"
        },
        {
          "order": 247,
          "poiIdx": 6960,
          "poiName": "General Travel",
          "category": "General Travel",
          "emoji": "📍",
          "lat": 40.688968,
          "lon": -73.92908473,
          "weekday": "5",
          "hour": 17,
          "timeLabel": "17:46"
        },
        {
          "order": 248,
          "poiIdx": 8335,
          "poiName": "General Travel",
          "category": "General Travel",
          "emoji": "📍",
          "lat": 40.70408638,
          "lon": -73.94807993,
          "weekday": "5",
          "hour": 18,
          "timeLabel": "18:19"
        },
        {
          "order": 249,
          "poiIdx": 7092,
          "poiName": "Other Great Outdoors",
          "category": "Other Great Outdoors",
          "emoji": "📍",
          "lat": 40.71408826,
          "lon": -73.94940591,
          "weekday": "5",
          "hour": 18,
          "timeLabel": "18:32"
        },
        {
          "order": 250,
          "poiIdx": 6437,
          "poiName": "Neighborhood",
          "category": "Neighborhood",
          "emoji": "📍",
          "lat": 40.6501689,
          "lon": -73.94957542,
          "weekday": "5",
          "hour": 18,
          "timeLabel": "18:33"
        },
        {
          "order": 251,
          "poiIdx": 6437,
          "poiName": "Neighborhood",
          "category": "Neighborhood",
          "emoji": "📍",
          "lat": 40.6501689,
          "lon": -73.94957542,
          "weekday": "6",
          "hour": 2,
          "timeLabel": "02:13"
        },
        {
          "order": 252,
          "poiIdx": 7092,
          "poiName": "Other Great Outdoors",
          "category": "Other Great Outdoors",
          "emoji": "📍",
          "lat": 40.71408826,
          "lon": -73.94940591,
          "weekday": "6",
          "hour": 2,
          "timeLabel": "02:14"
        },
        {
          "order": 253,
          "poiIdx": 7038,
          "poiName": "Home (private)",
          "category": "Home (private)",
          "emoji": "🏠",
          "lat": 40.69321218,
          "lon": -73.93010371,
          "weekday": "6",
          "hour": 10,
          "timeLabel": "10:36"
        },
        {
          "order": 254,
          "poiIdx": 6952,
          "poiName": "Home (private)",
          "category": "Home (private)",
          "emoji": "🏠",
          "lat": 40.69321218,
          "lon": -73.93010371,
          "weekday": "6",
          "hour": 10,
          "timeLabel": "10:37"
        },
        {
          "order": 255,
          "poiIdx": 8066,
          "poiName": "Home (private)",
          "category": "Home (private)",
          "emoji": "🏠",
          "lat": 40.69321218,
          "lon": -73.93010371,
          "weekday": "6",
          "hour": 15,
          "timeLabel": "15:28"
        },
        {
          "order": 256,
          "poiIdx": 6960,
          "poiName": "General Travel",
          "category": "General Travel",
          "emoji": "📍",
          "lat": 40.688968,
          "lon": -73.92908473,
          "weekday": "6",
          "hour": 15,
          "timeLabel": "15:29"
        },
        {
          "order": 257,
          "poiIdx": 8335,
          "poiName": "General Travel",
          "category": "General Travel",
          "emoji": "📍",
          "lat": 40.70408638,
          "lon": -73.94807993,
          "weekday": "6",
          "hour": 15,
          "timeLabel": "15:57"
        },
        {
          "order": 258,
          "poiIdx": 6437,
          "poiName": "Neighborhood",
          "category": "Neighborhood",
          "emoji": "📍",
          "lat": 40.6501689,
          "lon": -73.94957542,
          "weekday": "6",
          "hour": 16,
          "timeLabel": "16:17"
        },
        {
          "order": 259,
          "poiIdx": 7106,
          "poiName": "Smoke Shop",
          "category": "Smoke Shop",
          "emoji": "📍",
          "lat": 40.71595074,
          "lon": -73.94959534,
          "weekday": "6",
          "hour": 16,
          "timeLabel": "16:53"
        },
        {
          "order": 260,
          "poiIdx": 3354,
          "poiName": "Subway",
          "category": "Subway",
          "emoji": "🚇",
          "lat": 40.67933621,
          "lon": -73.93028498,
          "weekday": "1",
          "hour": 12,
          "timeLabel": "12:56"
        },
        {
          "order": 261,
          "poiIdx": 3087,
          "poiName": "Subway",
          "category": "Subway",
          "emoji": "🚇",
          "lat": 40.7255768,
          "lon": -74.004252,
          "weekday": "1",
          "hour": 13,
          "timeLabel": "13:26"
        },
        {
          "order": 262,
          "poiIdx": 2590,
          "poiName": "Park",
          "category": "Park",
          "emoji": "🌳",
          "lat": 40.72678506,
          "lon": -74.00346747,
          "weekday": "1",
          "hour": 13,
          "timeLabel": "13:27"
        },
        {
          "order": 263,
          "poiIdx": 5813,
          "poiName": "Deli / Bodega",
          "category": "Deli / Bodega",
          "emoji": "📍",
          "lat": 40.72690199,
          "lon": -74.0032754,
          "weekday": "1",
          "hour": 13,
          "timeLabel": "13:28"
        },
        {
          "order": 264,
          "poiIdx": 4766,
          "poiName": "Convenience Store",
          "category": "Convenience Store",
          "emoji": "📍",
          "lat": 40.727205,
          "lon": -74.003234,
          "weekday": "1",
          "hour": 13,
          "timeLabel": "13:31"
        },
        {
          "order": 265,
          "poiIdx": 3950,
          "poiName": "Paper / Office Supplies Store",
          "category": "Paper / Office Supplies Store",
          "emoji": "💼",
          "lat": 40.72702213,
          "lon": -74.00527814,
          "weekday": "1",
          "hour": 13,
          "timeLabel": "13:36"
        },
        {
          "order": 266,
          "poiIdx": 3087,
          "poiName": "Subway",
          "category": "Subway",
          "emoji": "🚇",
          "lat": 40.7255768,
          "lon": -74.004252,
          "weekday": "1",
          "hour": 20,
          "timeLabel": "20:07"
        },
        {
          "order": 267,
          "poiIdx": 7092,
          "poiName": "Other Great Outdoors",
          "category": "Other Great Outdoors",
          "emoji": "📍",
          "lat": 40.71408826,
          "lon": -73.94940591,
          "weekday": "1",
          "hour": 20,
          "timeLabel": "20:27"
        },
        {
          "order": 268,
          "poiIdx": 7106,
          "poiName": "Smoke Shop",
          "category": "Smoke Shop",
          "emoji": "📍",
          "lat": 40.71595074,
          "lon": -73.94959534,
          "weekday": "1",
          "hour": 20,
          "timeLabel": "20:28"
        },
        {
          "order": 269,
          "poiIdx": 6437,
          "poiName": "Neighborhood",
          "category": "Neighborhood",
          "emoji": "📍",
          "lat": 40.6501689,
          "lon": -73.94957542,
          "weekday": "2",
          "hour": 2,
          "timeLabel": "02:28"
        },
        {
          "order": 270,
          "poiIdx": 7092,
          "poiName": "Other Great Outdoors",
          "category": "Other Great Outdoors",
          "emoji": "📍",
          "lat": 40.71408826,
          "lon": -73.94940591,
          "weekday": "2",
          "hour": 2,
          "timeLabel": "02:29"
        },
        {
          "order": 271,
          "poiIdx": 2149,
          "poiName": "Train Station",
          "category": "Train Station",
          "emoji": "🚇",
          "lat": 40.70386504,
          "lon": -73.94740149,
          "weekday": "2",
          "hour": 2,
          "timeLabel": "02:48"
        },
        {
          "order": 272,
          "poiIdx": 7038,
          "poiName": "Home (private)",
          "category": "Home (private)",
          "emoji": "🏠",
          "lat": 40.69321218,
          "lon": -73.93010371,
          "weekday": "3",
          "hour": 11,
          "timeLabel": "11:21"
        },
        {
          "order": 273,
          "poiIdx": 6952,
          "poiName": "Home (private)",
          "category": "Home (private)",
          "emoji": "🏠",
          "lat": 40.69321218,
          "lon": -73.93010371,
          "weekday": "3",
          "hour": 11,
          "timeLabel": "11:21"
        },
        {
          "order": 274,
          "poiIdx": 8066,
          "poiName": "Home (private)",
          "category": "Home (private)",
          "emoji": "🏠",
          "lat": 40.69321218,
          "lon": -73.93010371,
          "weekday": "3",
          "hour": 11,
          "timeLabel": "11:40"
        },
        {
          "order": 275,
          "poiIdx": 4132,
          "poiName": "Subway",
          "category": "Subway",
          "emoji": "🚇",
          "lat": 40.80057233,
          "lon": -73.95817995,
          "weekday": "3",
          "hour": 12,
          "timeLabel": "12:46"
        },
        {
          "order": 276,
          "poiIdx": 3776,
          "poiName": "Plaza",
          "category": "Plaza",
          "emoji": "📍",
          "lat": 40.80070778,
          "lon": -73.95825128,
          "weekday": "3",
          "hour": 12,
          "timeLabel": "12:47"
        },
        {
          "order": 277,
          "poiIdx": 4132,
          "poiName": "Subway",
          "category": "Subway",
          "emoji": "🚇",
          "lat": 40.80057233,
          "lon": -73.95817995,
          "weekday": "3",
          "hour": 13,
          "timeLabel": "13:01"
        },
        {
          "order": 278,
          "poiIdx": 3087,
          "poiName": "Subway",
          "category": "Subway",
          "emoji": "🚇",
          "lat": 40.7255768,
          "lon": -74.004252,
          "weekday": "3",
          "hour": 13,
          "timeLabel": "13:43"
        },
        {
          "order": 279,
          "poiIdx": 2590,
          "poiName": "Park",
          "category": "Park",
          "emoji": "🌳",
          "lat": 40.72678506,
          "lon": -74.00346747,
          "weekday": "3",
          "hour": 13,
          "timeLabel": "13:44"
        },
        {
          "order": 280,
          "poiIdx": 1222,
          "poiName": "General Entertainment",
          "category": "General Entertainment",
          "emoji": "📍",
          "lat": 40.72692706,
          "lon": -74.00549046,
          "weekday": "3",
          "hour": 13,
          "timeLabel": "13:45"
        },
        {
          "order": 281,
          "poiIdx": 9388,
          "poiName": "Office",
          "category": "Office",
          "emoji": "💼",
          "lat": 40.72648555,
          "lon": -74.00508877,
          "weekday": "3",
          "hour": 13,
          "timeLabel": "13:54"
        },
        {
          "order": 282,
          "poiIdx": 3087,
          "poiName": "Subway",
          "category": "Subway",
          "emoji": "🚇",
          "lat": 40.7255768,
          "lon": -74.004252,
          "weekday": "3",
          "hour": 20,
          "timeLabel": "20:08"
        },
        {
          "order": 283,
          "poiIdx": 8704,
          "poiName": "Train Station",
          "category": "Train Station",
          "emoji": "🚇",
          "lat": 40.85851084,
          "lon": -73.85582475,
          "weekday": "3",
          "hour": 21,
          "timeLabel": "21:21"
        },
        {
          "order": 284,
          "poiIdx": 7038,
          "poiName": "Home (private)",
          "category": "Home (private)",
          "emoji": "🏠",
          "lat": 40.69321218,
          "lon": -73.93010371,
          "weekday": "4",
          "hour": 12,
          "timeLabel": "12:10"
        },
        {
          "order": 285,
          "poiIdx": 6952,
          "poiName": "Home (private)",
          "category": "Home (private)",
          "emoji": "🏠",
          "lat": 40.69321218,
          "lon": -73.93010371,
          "weekday": "4",
          "hour": 12,
          "timeLabel": "12:10"
        },
        {
          "order": 286,
          "poiIdx": 8066,
          "poiName": "Home (private)",
          "category": "Home (private)",
          "emoji": "🏠",
          "lat": 40.69321218,
          "lon": -73.93010371,
          "weekday": "4",
          "hour": 12,
          "timeLabel": "12:36"
        },
        {
          "order": 287,
          "poiIdx": 6960,
          "poiName": "General Travel",
          "category": "General Travel",
          "emoji": "📍",
          "lat": 40.688968,
          "lon": -73.92908473,
          "weekday": "4",
          "hour": 12,
          "timeLabel": "12:37"
        },
        {
          "order": 288,
          "poiIdx": 3354,
          "poiName": "Subway",
          "category": "Subway",
          "emoji": "🚇",
          "lat": 40.67933621,
          "lon": -73.93028498,
          "weekday": "4",
          "hour": 12,
          "timeLabel": "12:38"
        },
        {
          "order": 289,
          "poiIdx": 3087,
          "poiName": "Subway",
          "category": "Subway",
          "emoji": "🚇",
          "lat": 40.7255768,
          "lon": -74.004252,
          "weekday": "4",
          "hour": 13,
          "timeLabel": "13:07"
        },
        {
          "order": 290,
          "poiIdx": 2590,
          "poiName": "Park",
          "category": "Park",
          "emoji": "🌳",
          "lat": 40.72678506,
          "lon": -74.00346747,
          "weekday": "4",
          "hour": 13,
          "timeLabel": "13:08"
        },
        {
          "order": 291,
          "poiIdx": 3288,
          "poiName": "Drugstore / Pharmacy",
          "category": "Drugstore / Pharmacy",
          "emoji": "📍",
          "lat": 40.72789663,
          "lon": -74.00722347,
          "weekday": "4",
          "hour": 13,
          "timeLabel": "13:15"
        },
        {
          "order": 292,
          "poiIdx": 3950,
          "poiName": "Paper / Office Supplies Store",
          "category": "Paper / Office Supplies Store",
          "emoji": "💼",
          "lat": 40.72702213,
          "lon": -74.00527814,
          "weekday": "4",
          "hour": 13,
          "timeLabel": "13:24"
        },
        {
          "order": 293,
          "poiIdx": 3087,
          "poiName": "Subway",
          "category": "Subway",
          "emoji": "🚇",
          "lat": 40.7255768,
          "lon": -74.004252,
          "weekday": "4",
          "hour": 20,
          "timeLabel": "20:13"
        },
        {
          "order": 294,
          "poiIdx": 8234,
          "poiName": "Subway",
          "category": "Subway",
          "emoji": "🚇",
          "lat": 40.75752331,
          "lon": -73.96917869,
          "weekday": "4",
          "hour": 20,
          "timeLabel": "20:41"
        },
        {
          "order": 295,
          "poiIdx": 3851,
          "poiName": "Smoke Shop",
          "category": "Smoke Shop",
          "emoji": "📍",
          "lat": 40.75714063,
          "lon": -73.96696996,
          "weekday": "4",
          "hour": 20,
          "timeLabel": "20:42"
        },
        {
          "order": 296,
          "poiIdx": 3851,
          "poiName": "Smoke Shop",
          "category": "Smoke Shop",
          "emoji": "📍",
          "lat": 40.75714063,
          "lon": -73.96696996,
          "weekday": "4",
          "hour": 23,
          "timeLabel": "23:33"
        },
        {
          "order": 297,
          "poiIdx": 7106,
          "poiName": "Smoke Shop",
          "category": "Smoke Shop",
          "emoji": "📍",
          "lat": 40.71595074,
          "lon": -73.94959534,
          "weekday": "5",
          "hour": 2,
          "timeLabel": "02:14"
        },
        {
          "order": 298,
          "poiIdx": 6437,
          "poiName": "Neighborhood",
          "category": "Neighborhood",
          "emoji": "📍",
          "lat": 40.6501689,
          "lon": -73.94957542,
          "weekday": "5",
          "hour": 2,
          "timeLabel": "02:17"
        },
        {
          "order": 299,
          "poiIdx": 7092,
          "poiName": "Other Great Outdoors",
          "category": "Other Great Outdoors",
          "emoji": "📍",
          "lat": 40.71408826,
          "lon": -73.94940591,
          "weekday": "5",
          "hour": 2,
          "timeLabel": "02:18"
        },
        {
          "order": 300,
          "poiIdx": 8197,
          "poiName": "Bus Station",
          "category": "Bus Station",
          "emoji": "🚇",
          "lat": 40.70402767,
          "lon": -73.94822344,
          "weekday": "5",
          "hour": 2,
          "timeLabel": "02:32"
        },
        {
          "order": 301,
          "poiIdx": 7038,
          "poiName": "Home (private)",
          "category": "Home (private)",
          "emoji": "🏠",
          "lat": 40.69321218,
          "lon": -73.93010371,
          "weekday": "5",
          "hour": 14,
          "timeLabel": "14:11"
        },
        {
          "order": 302,
          "poiIdx": 6952,
          "poiName": "Home (private)",
          "category": "Home (private)",
          "emoji": "🏠",
          "lat": 40.69321218,
          "lon": -73.93010371,
          "weekday": "5",
          "hour": 14,
          "timeLabel": "14:12"
        },
        {
          "order": 303,
          "poiIdx": 8066,
          "poiName": "Home (private)",
          "category": "Home (private)",
          "emoji": "🏠",
          "lat": 40.69321218,
          "lon": -73.93010371,
          "weekday": "5",
          "hour": 18,
          "timeLabel": "18:16"
        },
        {
          "order": 304,
          "poiIdx": 6960,
          "poiName": "General Travel",
          "category": "General Travel",
          "emoji": "📍",
          "lat": 40.688968,
          "lon": -73.92908473,
          "weekday": "5",
          "hour": 18,
          "timeLabel": "18:26"
        },
        {
          "order": 305,
          "poiIdx": 4555,
          "poiName": "Park",
          "category": "Park",
          "emoji": "🌳",
          "lat": 40.706467775,
          "lon": -73.94754036,
          "weekday": "5",
          "hour": 18,
          "timeLabel": "18:47"
        },
        {
          "order": 306,
          "poiIdx": 8335,
          "poiName": "General Travel",
          "category": "General Travel",
          "emoji": "📍",
          "lat": 40.70408638,
          "lon": -73.94807993,
          "weekday": "5",
          "hour": 19,
          "timeLabel": "19:02"
        },
        {
          "order": 307,
          "poiIdx": 7092,
          "poiName": "Other Great Outdoors",
          "category": "Other Great Outdoors",
          "emoji": "📍",
          "lat": 40.71408826,
          "lon": -73.94940591,
          "weekday": "5",
          "hour": 19,
          "timeLabel": "19:05"
        },
        {
          "order": 308,
          "poiIdx": 7038,
          "poiName": "Home (private)",
          "category": "Home (private)",
          "emoji": "🏠",
          "lat": 40.69321218,
          "lon": -73.93010371,
          "weekday": "6",
          "hour": 13,
          "timeLabel": "13:25"
        },
        {
          "order": 309,
          "poiIdx": 6952,
          "poiName": "Home (private)",
          "category": "Home (private)",
          "emoji": "🏠",
          "lat": 40.69321218,
          "lon": -73.93010371,
          "weekday": "6",
          "hour": 13,
          "timeLabel": "13:25"
        },
        {
          "order": 310,
          "poiIdx": 8066,
          "poiName": "Home (private)",
          "category": "Home (private)",
          "emoji": "🏠",
          "lat": 40.69321218,
          "lon": -73.93010371,
          "weekday": "6",
          "hour": 16,
          "timeLabel": "16:09"
        },
        {
          "order": 311,
          "poiIdx": 8335,
          "poiName": "General Travel",
          "category": "General Travel",
          "emoji": "📍",
          "lat": 40.70408638,
          "lon": -73.94807993,
          "weekday": "6",
          "hour": 16,
          "timeLabel": "16:28"
        },
        {
          "order": 312,
          "poiIdx": 6437,
          "poiName": "Neighborhood",
          "category": "Neighborhood",
          "emoji": "📍",
          "lat": 40.6501689,
          "lon": -73.94957542,
          "weekday": "0",
          "hour": 0,
          "timeLabel": "00:25"
        },
        {
          "order": 313,
          "poiIdx": 7092,
          "poiName": "Other Great Outdoors",
          "category": "Other Great Outdoors",
          "emoji": "📍",
          "lat": 40.71408826,
          "lon": -73.94940591,
          "weekday": "0",
          "hour": 0,
          "timeLabel": "00:26"
        },
        {
          "order": 314,
          "poiIdx": 8197,
          "poiName": "Bus Station",
          "category": "Bus Station",
          "emoji": "🚇",
          "lat": 40.70402767,
          "lon": -73.94822344,
          "weekday": "0",
          "hour": 0,
          "timeLabel": "00:43"
        },
        {
          "order": 315,
          "poiIdx": 7038,
          "poiName": "Home (private)",
          "category": "Home (private)",
          "emoji": "🏠",
          "lat": 40.69321218,
          "lon": -73.93010371,
          "weekday": "0",
          "hour": 12,
          "timeLabel": "12:18"
        },
        {
          "order": 316,
          "poiIdx": 6952,
          "poiName": "Home (private)",
          "category": "Home (private)",
          "emoji": "🏠",
          "lat": 40.69321218,
          "lon": -73.93010371,
          "weekday": "0",
          "hour": 12,
          "timeLabel": "12:19"
        },
        {
          "order": 317,
          "poiIdx": 6960,
          "poiName": "General Travel",
          "category": "General Travel",
          "emoji": "📍",
          "lat": 40.688968,
          "lon": -73.92908473,
          "weekday": "0",
          "hour": 12,
          "timeLabel": "12:37"
        },
        {
          "order": 318,
          "poiIdx": 3087,
          "poiName": "Subway",
          "category": "Subway",
          "emoji": "🚇",
          "lat": 40.7255768,
          "lon": -74.004252,
          "weekday": "0",
          "hour": 13,
          "timeLabel": "13:20"
        },
        {
          "order": 319,
          "poiIdx": 2590,
          "poiName": "Park",
          "category": "Park",
          "emoji": "🌳",
          "lat": 40.72678506,
          "lon": -74.00346747,
          "weekday": "0",
          "hour": 13,
          "timeLabel": "13:21"
        },
        {
          "order": 320,
          "poiIdx": 3950,
          "poiName": "Paper / Office Supplies Store",
          "category": "Paper / Office Supplies Store",
          "emoji": "💼",
          "lat": 40.72702213,
          "lon": -74.00527814,
          "weekday": "0",
          "hour": 13,
          "timeLabel": "13:23"
        },
        {
          "order": 321,
          "poiIdx": 6952,
          "poiName": "Home (private)",
          "category": "Home (private)",
          "emoji": "🏠",
          "lat": 40.69321218,
          "lon": -73.93010371,
          "weekday": "1",
          "hour": 11,
          "timeLabel": "11:47"
        },